{
  "data": {
    "Mill": [
      {
        "millName": "MUSIRAWAS CITRAHARPINDO PKS 2",
        "cert": "Not RSPO Certified",
        "latitude": -2.45167,
        "longitude": 112.2161,
        "operator": {
          "name": "MUSIRAWAS CITRA HARPINDO",
          "rspo_membershipNumber": null
        }
      },
      {
        "millName": "BERANGIR",
        "cert": "RSPO Certified",
        "latitude": 2.22472,
        "longitude": 99.76028000000001,
        "operator": {
          "name": "PERKEBUNAN NUSANTARA IV",
          "rspo_membershipNumber": null
        }
      },
      {
        "millName": "KEBUN RIMBA BELIAN",
        "cert": "Not RSPO Certified",
        "latitude": -0.028739999999999998,
        "longitude": 110.45414,
        "operator": {
          "name": "PERKEBUNAN NUSANTARA XIII",
          "rspo_membershipNumber": null
        }
      },
      {
        "millName": "KRABI PALM OIL COMMUNITY COOPERATIVE",
        "cert": "Not RSPO Certified",
        "latitude": 8.389289999999999,
        "longitude": 98.86417,
        "operator": {
          "name": "KRABI PALM OIL COMMUNITY COOPERATIVE",
          "rspo_membershipNumber": null
        }
      },
      {
        "millName": "ACEITES CIMARRONES SAS",
        "cert": "RSPO Certified",
        "latitude": 3.03559,
        "longitude": -73.11147,
        "operator": {
          "name": "AGROPECUARIA SANTA MARIA S.A.",
          "rspo_membershipNumber": null
        }
      },
      {
        "millName": "KUAYAN",
        "cert": "Not RSPO Certified",
        "latitude": -1.9705,
        "longitude": 112.37031999999999,
        "operator": {
          "name": "AGROKARYA PRIMA LESTARI",
          "rspo_membershipNumber": null
        }
      },
      {
        "millName": "EXTRACTORA CUSIANA LTDA",
        "cert": "Not RSPO Certified",
        "latitude": 4.59506,
        "longitude": -72.82741999999999,
        "operator": {
          "name": "EXTRACTORA CUSIANA LTDA",
          "rspo_membershipNumber": null
        }
      },
      {
        "millName": "SEBANGA MULTI SAWIT",
        "cert": "Not RSPO Certified",
        "latitude": 1.2559799999999999,
        "longitude": 101.28869,
        "operator": {
          "name": "SEBANGA MULTI SAWIT",
          "rspo_membershipNumber": null
        }
      },
      {
        "millName": "KARYA SERASI JAYA ABADI",
        "cert": "Not RSPO Certified",
        "latitude": 3.34228,
        "longitude": 99.22248,
        "operator": {
          "name": "KARYA SERASI JAYA ABADI",
          "rspo_membershipNumber": null
        }
      },
      {
        "millName": "INDSTRIA E COMRCIO DE LEOS E FARELOS VEGETAIS DA AMAZNIA LTDA",
        "cert": "Not RSPO Certified",
        "latitude": -2.46,
        "longitude": -48.74222,
        "operator": {
          "name": "OPALA",
          "rspo_membershipNumber": null
        }
      },
      {
        "millName": "HARAPAN JAYA SAWITA",
        "cert": "Not RSPO Certified",
        "latitude": 3.86292,
        "longitude": 98.42129,
        "operator": {
          "name": "HARAPAN JAYA SAWITA",
          "rspo_membershipNumber": null
        }
      },
      {
        "millName": "MEGAH PUSAKA ANDALAS",
        "cert": "Not RSPO Certified",
        "latitude": 3.65066,
        "longitude": 98.15077,
        "operator": {
          "name": "MEGAH PUSAKA ANDALAS",
          "rspo_membershipNumber": null
        }
      },
      {
        "millName": "MUTIARA AGAM",
        "cert": "Not RSPO Certified",
        "latitude": -0.32032,
        "longitude": 99.87732,
        "operator": {
          "name": "MUTIARA AGAM",
          "rspo_membershipNumber": null
        }
      },
      {
        "millName": "PERMATA HIJAU SAWIT",
        "cert": "Not RSPO Certified",
        "latitude": 1.0662399999999999,
        "longitude": 100.07048,
        "operator": {
          "name": "PERMATA HIJAU SAWIT",
          "rspo_membershipNumber": null
        }
      },
      {
        "millName": "DERAWAN (SOU 33)",
        "cert": "RSPO Certified",
        "latitude": 3.3902,
        "longitude": 113.34541999999999,
        "operator": {
          "name": "SIME DARBY PLANTATION BHD",
          "rspo_membershipNumber": null
        }
      },
      {
        "millName": "MUARA BAHAR",
        "cert": "Not RSPO Certified",
        "latitude": -1.96292,
        "longitude": 103.6155,
        "operator": {
          "name": "MITRA AGROLIKA SEJAHTERA",
          "rspo_membershipNumber": null
        }
      },
      {
        "millName": "CAHAYA UNGGUL PRIMA",
        "cert": "Not RSPO Certified",
        "latitude": 0.46371999999999997,
        "longitude": 111.34468999999999,
        "operator": {
          "name": "CAHAYA UNGGUL PRIMA",
          "rspo_membershipNumber": null
        }
      },
      {
        "millName": "LUM",
        "cert": "Not RSPO Certified",
        "latitude": 2.74357,
        "longitude": 102.93881999999999,
        "operator": {
          "name": "KILANG MINYAK KELAPA SAWIT LUM SDN BHD",
          "rspo_membershipNumber": null
        }
      },
      {
        "millName": "CAL Y BLANCO S.A",
        "cert": "Not RSPO Certified",
        "latitude": 10.035689999999999,
        "longitude": -83.34411999999999,
        "operator": {
          "name": "CAL Y BLANCO S.A",
          "rspo_membershipNumber": null
        }
      },
      {
        "millName": "MUARA DILAM",
        "cert": "Not RSPO Certified",
        "latitude": 0.95947,
        "longitude": 100.72378,
        "operator": {
          "name": "SUMBER ALAM MAKMUR SENTOSA",
          "rspo_membershipNumber": null
        }
      },
      {
        "millName": "TANJUNG SELAMAT",
        "cert": "RSPO Certified",
        "latitude": 2.12889,
        "longitude": 100.00889000000001,
        "operator": {
          "name": "INTI INDOSAWIT SUBUR",
          "rspo_membershipNumber": null
        }
      },
      {
        "millName": "TESO II",
        "cert": "Not RSPO Certified",
        "latitude": -0.32253000000000004,
        "longitude": 101.55821999999999,
        "operator": {
          "name": "CITRA RIAU SARANA",
          "rspo_membershipNumber": null
        }
      },
      {
        "millName": "BAREMA PALM OIL MILL",
        "cert": "RSPO Certified",
        "latitude": -5.21044,
        "longitude": 151.12986999999998,
        "operator": {
          "name": "HARGY OIL PALM LIMITED",
          "rspo_membershipNumber": null
        }
      },
      {
        "millName": "CILIANDRA PERKASA",
        "cert": "Not RSPO Certified",
        "latitude": 0.1621,
        "longitude": 101.0549,
        "operator": {
          "name": "CILIANDRA PERKASA",
          "rspo_membershipNumber": null
        }
      },
      {
        "millName": "PASANGKAYU",
        "cert": "Not RSPO Certified",
        "latitude": -1.2223600000000001,
        "longitude": 119.47245,
        "operator": {
          "name": "PASANGKAYU",
          "rspo_membershipNumber": null
        }
      },
      {
        "millName": "NANGA KIU",
        "cert": "Not RSPO Certified",
        "latitude": -1.8378900000000002,
        "longitude": 111.53281000000001,
        "operator": {
          "name": "SAWIT MULTI UTAMA",
          "rspo_membershipNumber": null
        }
      },
      {
        "millName": "NAKIADENIYA OIL PALM MILL",
        "cert": "Not RSPO Certified",
        "latitude": 6.1521,
        "longitude": 80.32613,
        "operator": {
          "name": "WATAWALA PLANTATIONS PLC NIYA",
          "rspo_membershipNumber": null
        }
      },
      {
        "millName": "AUMKAR",
        "cert": "Not RSPO Certified",
        "latitude": 4.74744,
        "longitude": 117.86882,
        "operator": {
          "name": "AUMKAR PLANTATIONS SDN BHD",
          "rspo_membershipNumber": null
        }
      },
      {
        "millName": "MITRASARI PRIMA",
        "cert": "Not RSPO Certified",
        "latitude": 0.13631,
        "longitude": 101.70503000000001,
        "operator": {
          "name": "MITRASARI PRIMA",
          "rspo_membershipNumber": null
        }
      },
      {
        "millName": "SAWIT HULU",
        "cert": "Not RSPO Certified",
        "latitude": 3.84312,
        "longitude": 98.23299999999999,
        "operator": {
          "name": "PERKEBUNAN NUSANTARA II",
          "rspo_membershipNumber": null
        }
      },
      {
        "millName": "BUMI PRATAMA KHATULISTIWA",
        "cert": "RSPO Certified",
        "latitude": -0.022180000000000002,
        "longitude": 109.42488,
        "operator": {
          "name": "BUMI PRATAMA KHATULISTIWA",
          "rspo_membershipNumber": null
        }
      },
      {
        "millName": "PELAIHARI",
        "cert": "Not RSPO Certified",
        "latitude": -3.7254699999999996,
        "longitude": 114.78627,
        "operator": {
          "name": "PERKEBUNAN NUSANTARA XIII",
          "rspo_membershipNumber": null
        }
      },
      {
        "millName": "BAH JAMBI",
        "cert": "RSPO Certified",
        "latitude": 2.98632,
        "longitude": 99.22023,
        "operator": {
          "name": "PERKEBUNAN NUSANTARA IV",
          "rspo_membershipNumber": null
        }
      },
      {
        "millName": "SOLOK SELATAN",
        "cert": "Not RSPO Certified",
        "latitude": -1.39335,
        "longitude": 101.59324000000001,
        "operator": {
          "name": "BINA PRATAMA SAKOTO JAYA",
          "rspo_membershipNumber": null
        }
      },
      {
        "millName": "PALMA MAS SEJATI",
        "cert": "Not RSPO Certified",
        "latitude": -3.7779300000000005,
        "longitude": 102.369,
        "operator": {
          "name": "PALMA MAS SEJATI",
          "rspo_membershipNumber": null
        }
      },
      {
        "millName": "PERMAI",
        "cert": "Not RSPO Certified",
        "latitude": 5.18733,
        "longitude": 118.44028999999999,
        "operator": {
          "name": "LADANG PERMAI SDN BHD",
          "rspo_membershipNumber": null
        }
      },
      {
        "millName": "DARMEX AGRO",
        "cert": "Not RSPO Certified",
        "latitude": 0.93634,
        "longitude": 109.1687,
        "operator": {
          "name": "DARMEX AGRO",
          "rspo_membershipNumber": null
        }
      },
      {
        "millName": "PULAU TIGA",
        "cert": "Not RSPO Certified",
        "latitude": 4.18335,
        "longitude": 97.93682,
        "operator": {
          "name": "PERKEBUNAN NUSANTARA I",
          "rspo_membershipNumber": null
        }
      },
      {
        "millName": "UIE",
        "cert": "RSPO Certified",
        "latitude": 4.443890000000001,
        "longitude": 100.72278,
        "operator": {
          "name": "UNITED INTERNATIONAL ENTERPRISES (M) SDN BHD",
          "rspo_membershipNumber": null
        }
      },
      {
        "millName": "KOSFARM",
        "cert": "Not RSPO Certified",
        "latitude": 2.9934,
        "longitude": 102.82,
        "operator": {
          "name": "KILANG KOSFARM SDN BHD",
          "rspo_membershipNumber": null
        }
      },
      {
        "millName": "LANGKON",
        "cert": "Not RSPO Certified",
        "latitude": 6.571739999999999,
        "longitude": 116.70833999999999,
        "operator": {
          "name": "SAWIT KINABALU SDN BHD",
          "rspo_membershipNumber": null
        }
      },
      {
        "millName": "SAREMAS 1",
        "cert": "RSPO Certified",
        "latitude": 3.52492,
        "longitude": 113.74441000000002,
        "operator": {
          "name": "SAREMAS SDN BHD",
          "rspo_membershipNumber": null
        }
      },
      {
        "millName": "KUANTAN TRADING",
        "cert": "Not RSPO Certified",
        "latitude": 2.72953,
        "longitude": 102.94003000000001,
        "operator": {
          "name": "KUANTAN TRADING OIL MILL SDN BHD",
          "rspo_membershipNumber": null
        }
      },
      {
        "millName": "SARATOK",
        "cert": "Not RSPO Certified",
        "latitude": 1.7125099999999998,
        "longitude": 111.43001000000001,
        "operator": {
          "name": "SARATOK PALM OIL MILL SDN BHD",
          "rspo_membershipNumber": null
        }
      },
      {
        "millName": "PALMICULTORES DEL MILENIO DEL ESTADO DE CAMPECHE",
        "cert": "Not RSPO Certified",
        "latitude": 18.67908,
        "longitude": -90.90403,
        "operator": {
          "name": "PALMICULTORES DEL MILENIO DEL ESTADO DEL CAMPECHE",
          "rspo_membershipNumber": null
        }
      },
      {
        "millName": "MINSAWI",
        "cert": "Not RSPO Certified",
        "latitude": 4.9036,
        "longitude": 100.90698,
        "operator": {
          "name": "MINSAWI INDUSTRIES (KUALA KANGSAR) SDN BHD",
          "rspo_membershipNumber": null
        }
      },
      {
        "millName": "SUKAJADI SAWIT MEKAR 1",
        "cert": "RSPO Certified",
        "latitude": -2.38111,
        "longitude": 112.53971999999999,
        "operator": {
          "name": "SUKAJADI SAWIT MEKAR",
          "rspo_membershipNumber": null
        }
      },
      {
        "millName": "QUEVEPALMA",
        "cert": "Not RSPO Certified",
        "latitude": -0.9657600000000001,
        "longitude": -79.47003000000001,
        "operator": {
          "name": "CIECOPALMA",
          "rspo_membershipNumber": null
        }
      },
      {
        "millName": "OLEOCASTILLO",
        "cert": "Not RSPO Certified",
        "latitude": 0.38587,
        "longitude": -79.20161,
        "operator": {
          "name": "PALMAC",
          "rspo_membershipNumber": null
        }
      },
      {
        "millName": "SINERGI AGRO INDUSTRI",
        "cert": "Not RSPO Certified",
        "latitude": 0.90395,
        "longitude": 118.42487,
        "operator": {
          "name": "SINERGI AGRO INDUSTRI",
          "rspo_membershipNumber": null
        }
      },
      {
        "millName": "WINSOME HARVEST",
        "cert": "Not RSPO Certified",
        "latitude": 4.553319999999999,
        "longitude": 118.35898,
        "operator": {
          "name": "WINSOME HARVEST PALM OIL MILL SDN BHD",
          "rspo_membershipNumber": null
        }
      },
      {
        "millName": "CERENTI",
        "cert": "Not RSPO Certified",
        "latitude": -0.5554399999999999,
        "longitude": 101.75779,
        "operator": {
          "name": "CERENTI SUBUR",
          "rspo_membershipNumber": null
        }
      },
      {
        "millName": "BEAUFORT",
        "cert": "Not RSPO Certified",
        "latitude": 5.30861,
        "longitude": 115.705,
        "operator": {
          "name": "BEAUFORT PALM OIL MILL SDN BHD",
          "rspo_membershipNumber": null
        }
      },
      {
        "millName": "BASTIAN OLAH SAWIT",
        "cert": "Not RSPO Certified",
        "latitude": -2.35175,
        "longitude": 103.91411,
        "operator": {
          "name": "BASTIAN OLAH SAWIT",
          "rspo_membershipNumber": null
        }
      },
      {
        "millName": "PKS 6",
        "cert": "Not RSPO Certified",
        "latitude": 1.2826600000000001,
        "longitude": 116.78232,
        "operator": {
          "name": "DEWATA SAWIT NUSANTARA",
          "rspo_membershipNumber": null
        }
      },
      {
        "millName": "KILANG KELAPA SAWIT SIANG",
        "cert": "Not RSPO Certified",
        "latitude": 1.54539,
        "longitude": 104.20935,
        "operator": {
          "name": "AA SAWIT SDN BHD",
          "rspo_membershipNumber": null
        }
      },
      {
        "millName": "COOPEMAPACHI",
        "cert": "Not RSPO Certified",
        "latitude": 8.4433,
        "longitude": -82.8505,
        "operator": {
          "name": "COOPERATIVADE PRODUCTORES DE PALMA ACEITERA DE CHIRIQU",
          "rspo_membershipNumber": null
        }
      },
      {
        "millName": "SINAR AGRO RAYA",
        "cert": "Not RSPO Certified",
        "latitude": 0.41991999999999996,
        "longitude": 101.75639,
        "operator": {
          "name": "SINAR AGRO RAYA",
          "rspo_membershipNumber": null
        }
      },
      {
        "millName": "PERMATA NUSA SEJATI",
        "cert": "Not RSPO Certified",
        "latitude": 4.1738,
        "longitude": 117.44434,
        "operator": {
          "name": "PERMATA NUSA SEJATI",
          "rspo_membershipNumber": null
        }
      },
      {
        "millName": "SEKIJANG",
        "cert": "RSPO Certified",
        "latitude": 0.83393,
        "longitude": 101.04428,
        "operator": {
          "name": "BUANA WIRALESTARI MAS",
          "rspo_membershipNumber": null
        }
      },
      {
        "millName": "RISDA SG AMBAT",
        "cert": "Not RSPO Certified",
        "latitude": 2.19475,
        "longitude": 103.87798000000001,
        "operator": {
          "name": "RISDA ESTATES SDN BHD",
          "rspo_membershipNumber": null
        }
      },
      {
        "millName": "RENGAS",
        "cert": "Not RSPO Certified",
        "latitude": -1.59531,
        "longitude": 102.72003000000001,
        "operator": {
          "name": "PERSADA HARAPAN KAHURIPAN",
          "rspo_membershipNumber": null
        }
      },
      {
        "millName": "TANJUNG BUYU PERKASA PLANTATION",
        "cert": "Not RSPO Certified",
        "latitude": 1.5138,
        "longitude": 118.26571000000001,
        "operator": {
          "name": "TANJUNG BUYU PERKASA PLANTATION",
          "rspo_membershipNumber": null
        }
      },
      {
        "millName": "MONORUM PALM OIL MILL",
        "cert": "RSPO Certified",
        "latitude": 10.909360000000001,
        "longitude": 103.8345,
        "operator": {
          "name": "MONG RETHTHY INVESTMENT CAMBODIA OIL PALM CO., LTD",
          "rspo_membershipNumber": null
        }
      },
      {
        "millName": "WEE TEE TONG",
        "cert": "Not RSPO Certified",
        "latitude": 5.6628099999999995,
        "longitude": 117.81143999999999,
        "operator": {
          "name": "WEE TEE TONG PALM OIL MILL SDN BHD",
          "rspo_membershipNumber": null
        }
      },
      {
        "millName": "MULTI PERSADA GATRA MEGAH",
        "cert": "RSPO Certified",
        "latitude": -0.770833,
        "longitude": 114.741222,
        "operator": {
          "name": "MULTI PERSADA GATRA MEGAH",
          "rspo_membershipNumber": null
        }
      },
      {
        "millName": "CHINI 3",
        "cert": "RSPO Certified",
        "latitude": 3.36649,
        "longitude": 102.93127,
        "operator": {
          "name": "FGV PALM INDUSTRIES SDN BHD",
          "rspo_membershipNumber": null
        }
      },
      {
        "millName": "LEEPANG",
        "cert": "RSPO Certified",
        "latitude": 5.54906,
        "longitude": 118.4376,
        "operator": {
          "name": "IOI CORPORATION BERHAD",
          "rspo_membershipNumber": "2-0002-04-000-00"
        }
      },
      {
        "millName": "TIDAR KERINCI AGUNG",
        "cert": "Not RSPO Certified",
        "latitude": -1.52085,
        "longitude": 101.55337,
        "operator": {
          "name": "TIDAR KERINCI AGUNG",
          "rspo_membershipNumber": null
        }
      },
      {
        "millName": "BUDI TANI KEMBANG JAYA",
        "cert": "Not RSPO Certified",
        "latitude": 0.54277,
        "longitude": 101.57986,
        "operator": {
          "name": "BUDI TANI KEMBANG JAYA",
          "rspo_membershipNumber": null
        }
      },
      {
        "millName": "SANG GUAN",
        "cert": "Not RSPO Certified",
        "latitude": 4.55935,
        "longitude": 118.18372,
        "operator": {
          "name": "SANG GUAN OIL MILL SDN BHD",
          "rspo_membershipNumber": null
        }
      },
      {
        "millName": "SEDENAK",
        "cert": "RSPO Certified",
        "latitude": 1.7308599999999998,
        "longitude": 103.53832,
        "operator": {
          "name": "EPA MANAGEMENT SDN BHD",
          "rspo_membershipNumber": null
        }
      },
      {
        "millName": "SEMANTAN",
        "cert": "Not RSPO Certified",
        "latitude": 3.4692300000000005,
        "longitude": 102.31371,
        "operator": {
          "name": "KILANG MINYAK KELAPA SAWIT SEMANTAN SDN BHD",
          "rspo_membershipNumber": null
        }
      },
      {
        "millName": "SURYA MAS CIPTA PERKASA",
        "cert": "Not RSPO Certified",
        "latitude": -3.03362,
        "longitude": 113.8584,
        "operator": {
          "name": "SURYA MAS CIPTA PERKASA",
          "rspo_membershipNumber": null
        }
      },
      {
        "millName": "KARIMUN AROMATICS",
        "cert": "Not RSPO Certified",
        "latitude": 4.01308,
        "longitude": 98.14952,
        "operator": {
          "name": "KARIMUN AROMATICS",
          "rspo_membershipNumber": null
        }
      },
      {
        "millName": "HASS POM",
        "cert": "Not RSPO Certified",
        "latitude": 3.5388599999999997,
        "longitude": 113.89978,
        "operator": {
          "name": "SEATEX DEVELOPMENT SDN BHD",
          "rspo_membershipNumber": null
        }
      },
      {
        "millName": "MABALI",
        "cert": "Not RSPO Certified",
        "latitude": -1.0000799999999999,
        "longitude": 110.19566999999999,
        "operator": {
          "name": "CIPTA USAHA SEJATI",
          "rspo_membershipNumber": null
        }
      },
      {
        "millName": "LALAN",
        "cert": "Not RSPO Certified",
        "latitude": -2.23413,
        "longitude": 104.33225999999999,
        "operator": {
          "name": "BANYU KAHURIPAN INDONESIA",
          "rspo_membershipNumber": null
        }
      },
      {
        "millName": "BUKIT KAPAH",
        "cert": "Not RSPO Certified",
        "latitude": 5.10942,
        "longitude": 102.897,
        "operator": {
          "name": "VILA SUTERA SDN BHD",
          "rspo_membershipNumber": null
        }
      },
      {
        "millName": "TEBO PLASMA INTILESTARI",
        "cert": "Not RSPO Certified",
        "latitude": -1.44474,
        "longitude": 102.53729,
        "operator": {
          "name": "TEBO PLASMA INTILESTARI",
          "rspo_membershipNumber": null
        }
      },
      {
        "millName": "SAWIT INTI PRIMA PERKASA",
        "cert": "Not RSPO Certified",
        "latitude": 1.2547700000000002,
        "longitude": 101.15357,
        "operator": {
          "name": "SAWIT INTI PRIMA PERKASA",
          "rspo_membershipNumber": null
        }
      },
      {
        "millName": "PEDDAPURAM PALM OIL MILL",
        "cert": "Not RSPO Certified",
        "latitude": 17.0309,
        "longitude": 82.2003,
        "operator": {
          "name": "RUCHI SOYA INDUSTRIES",
          "rspo_membershipNumber": null
        }
      },
      {
        "millName": "DOLOK ILIR",
        "cert": "RSPO Certified",
        "latitude": 3.12042,
        "longitude": 99.15907,
        "operator": {
          "name": "PERKEBUNAN NUSANTARA IV",
          "rspo_membershipNumber": null
        }
      },
      {
        "millName": "PERSADA ALAM JAYA",
        "cert": "Not RSPO Certified",
        "latitude": -1.04389,
        "longitude": 102.88722,
        "operator": {
          "name": "PERSADA ALAM JAYA",
          "rspo_membershipNumber": null
        }
      },
      {
        "millName": "SATHIEN PALM COMPANY LIMITED",
        "cert": "Not RSPO Certified",
        "latitude": 13.865960000000001,
        "longitude": 99.70559,
        "operator": {
          "name": "SATHIEN PALM COMPANY LIMITED",
          "rspo_membershipNumber": null
        }
      },
      {
        "millName": "SUKSOMBOON BOURAI CO,.LTD.",
        "cert": "Not RSPO Certified",
        "latitude": 12.51713,
        "longitude": 102.5507,
        "operator": {
          "name": "SUKSOMBOON BOARAI CO,.LTD.",
          "rspo_membershipNumber": null
        }
      },
      {
        "millName": "CAHAYA SAWIT LESTARI",
        "cert": "Not RSPO Certified",
        "latitude": -3.80461,
        "longitude": 102.39752,
        "operator": {
          "name": "CAHAYA SAWIT LESTARI",
          "rspo_membershipNumber": null
        }
      },
      {
        "millName": "SEBAKIS INTI LESTARI",
        "cert": "Not RSPO Certified",
        "latitude": 4.00517,
        "longitude": 117.2545,
        "operator": {
          "name": "SEBAKIS INTI LESTARI",
          "rspo_membershipNumber": null
        }
      },
      {
        "millName": "INDONESIA PLANTATION SYNERGY",
        "cert": "Not RSPO Certified",
        "latitude": 0.7861100000000001,
        "longitude": 117.99838999999999,
        "operator": {
          "name": "INDONESIA PLANTATION SYNERGY",
          "rspo_membershipNumber": null
        }
      },
      {
        "millName": "JAYAPUTRA",
        "cert": "Not RSPO Certified",
        "latitude": 3.98294,
        "longitude": 102.22248,
        "operator": {
          "name": "FELCRA JAYAPUTRA SDN BHD",
          "rspo_membershipNumber": null
        }
      },
      {
        "millName": "BELANI ELOK",
        "cert": "Not RSPO Certified",
        "latitude": -2.61556,
        "longitude": 103.1456,
        "operator": {
          "name": "PERUSAHAAN PERKEBUNAN LONDON SUMATRA INDONESIA",
          "rspo_membershipNumber": null
        }
      },
      {
        "millName": "GUNUNG KOMBENG",
        "cert": "Not RSPO Certified",
        "latitude": 1.11206,
        "longitude": 117.02188000000001,
        "operator": {
          "name": "KRESNA DUTA AGROINDO",
          "rspo_membershipNumber": null
        }
      },
      {
        "millName": "JENDARATA",
        "cert": "RSPO Certified",
        "latitude": 3.8538900000000003,
        "longitude": 100.96833000000001,
        "operator": {
          "name": "UNITED PLANTATIONS BERHAD",
          "rspo_membershipNumber": null
        }
      },
      {
        "millName": "STEELINDO WAHANA PERKASA",
        "cert": "RSPO Certified",
        "latitude": -2.7235,
        "longitude": 108.06266000000001,
        "operator": {
          "name": "STEELINDO WAHANA PERKASA",
          "rspo_membershipNumber": null
        }
      },
      {
        "millName": "SERI ULU LANGAT",
        "cert": "Not RSPO Certified",
        "latitude": 2.85169,
        "longitude": 101.65012,
        "operator": {
          "name": "SERI ULU LANGAT PALM OIL MILL SDN BHD",
          "rspo_membershipNumber": null
        }
      },
      {
        "millName": "NORDANAL (SOU 19)",
        "cert": "Not RSPO Certified",
        "latitude": 2.1833299999999998,
        "longitude": 102.73333000000001,
        "operator": {
          "name": "SIME DARBY PLANTATION BHD",
          "rspo_membershipNumber": null
        }
      },
      {
        "millName": "SALONOK LADANG MAS",
        "cert": "Not RSPO Certified",
        "latitude": -2.7539999999999996,
        "longitude": 112.43738,
        "operator": {
          "name": "SALONOK LADANG MAS",
          "rspo_membershipNumber": null
        }
      },
      {
        "millName": "MEMPAGA",
        "cert": "Not RSPO Certified",
        "latitude": 3.52722,
        "longitude": 101.98028000000001,
        "operator": {
          "name": "FGV PALM INDUSTRIES SDN BHD",
          "rspo_membershipNumber": null
        }
      },
      {
        "millName": "KELAMPAI",
        "cert": "Not RSPO Certified",
        "latitude": -1.93485,
        "longitude": 110.49413,
        "operator": {
          "name": "ARRTU PLANTATION",
          "rspo_membershipNumber": null
        }
      },
      {
        "millName": "TETANGGA AKRAB 2",
        "cert": "Not RSPO Certified",
        "latitude": 3.9608,
        "longitude": 113.8961,
        "operator": {
          "name": "TETANGGA AKRAB SDN BHD",
          "rspo_membershipNumber": null
        }
      },
      {
        "millName": "ANDALAS WAHANA BERJAYA",
        "cert": "Not RSPO Certified",
        "latitude": -1.1193889,
        "longitude": 101.551222,
        "operator": {
          "name": "ANDALAS WAHANA BERJAYA",
          "rspo_membershipNumber": null
        }
      },
      {
        "millName": "MAWAR MENTARI",
        "cert": "Not RSPO Certified",
        "latitude": 2.86718,
        "longitude": 102.31613,
        "operator": {
          "name": "MAWAR MENTARI SDN BHD",
          "rspo_membershipNumber": null
        }
      },
      {
        "millName": "TUNGKAL ULU",
        "cert": "RSPO Certified",
        "latitude": -1.30138,
        "longitude": 102.97935,
        "operator": {
          "name": "INTI INDOSAWIT SUBUR",
          "rspo_membershipNumber": null
        }
      },
      {
        "millName": "KARYANUSA EKA DAYA 2",
        "cert": "Not RSPO Certified",
        "latitude": 0.9123399999999999,
        "longitude": 116.73427,
        "operator": {
          "name": "KARYANUSA EKADAYA",
          "rspo_membershipNumber": null
        }
      },
      {
        "millName": "NIAGA MAS GEMILANG",
        "cert": "Not RSPO Certified",
        "latitude": -0.59233,
        "longitude": 116.8225,
        "operator": {
          "name": "NIAGA MAS GEMILANG",
          "rspo_membershipNumber": null
        }
      },
      {
        "millName": "CORPORACION INDUSTRIAL DE SULA (COINSU)",
        "cert": "Not RSPO Certified",
        "latitude": 15.74322,
        "longitude": -87.88794,
        "operator": {
          "name": "CORPORACION INDUSTRIAL DE SULA (COINSU)",
          "rspo_membershipNumber": null
        }
      },
      {
        "millName": "WAIMUSI AGRO INDAH",
        "cert": "Not RSPO Certified",
        "latitude": -3.6716599999999997,
        "longitude": 105.06792,
        "operator": {
          "name": "WAIMUSI AGRO INDAH",
          "rspo_membershipNumber": null
        }
      },
      {
        "millName": "PALMISA",
        "cert": "Not RSPO Certified",
        "latitude": -0.70973,
        "longitude": -79.46710999999999,
        "operator": {
          "name": "EXTRACTORA AGRICOLA RIO MANSO",
          "rspo_membershipNumber": null
        }
      },
      {
        "millName": "LA SEXTA",
        "cert": "RSPO Certified",
        "latitude": 0.29003,
        "longitude": -79.27319,
        "operator": {
          "name": "EXTRACTORA LA SEXTA S.A.",
          "rspo_membershipNumber": null
        }
      },
      {
        "millName": "INDUSTRIAS DE JABONES Y DETERGENTES LAS PALMAS, S. A.",
        "cert": "RSPO Certified",
        "latitude": 14.042110000000001,
        "longitude": -91.12219,
        "operator": {
          "name": "INDUSTRIAS DE JABONES Y DETERGENTES LAS PALMAS, S. A.",
          "rspo_membershipNumber": "1-0160-14-000-00"
        }
      },
      {
        "millName": "STABAT",
        "cert": "RSPO Certified",
        "latitude": 3.7597199999999997,
        "longitude": 98.39305999999999,
        "operator": {
          "name": "LANGKAT NUSANTARA KEPONG",
          "rspo_membershipNumber": null
        }
      },
      {
        "millName": "BUKIT BENUT (SOU 22)",
        "cert": "RSPO Certified",
        "latitude": 1.93114,
        "longitude": 103.34737,
        "operator": {
          "name": "SIME DARBY PLANTATION BHD",
          "rspo_membershipNumber": null
        }
      },
      {
        "millName": "BUKIT SANTUAI",
        "cert": "RSPO Certified",
        "latitude": -1.8625,
        "longitude": 112.39583,
        "operator": {
          "name": "AGRO WANA LESTARI",
          "rspo_membershipNumber": null
        }
      },
      {
        "millName": "PKS 3",
        "cert": "RSPO Certified",
        "latitude": 1.25603,
        "longitude": 116.87475,
        "operator": {
          "name": "DHARMA SATYA NUSANTARA",
          "rspo_membershipNumber": null
        }
      },
      {
        "millName": "CAHAYA BINTANG SAWIT SEJATI 2",
        "cert": "Not RSPO Certified",
        "latitude": -2.093,
        "longitude": 116.12133,
        "operator": {
          "name": "CAHAYA BINTANG SAWIT SEJATI",
          "rspo_membershipNumber": null
        }
      },
      {
        "millName": "COOPEAGROPAL EL ROBEL",
        "cert": "Not RSPO Certified",
        "latitude": 8.4358,
        "longitude": -82.9447,
        "operator": {
          "name": "COOPERATIVA AGROINDUSTRIAL DE PRODUCTORES DE PALMA ACEITERA R.L. (COOPEAGROPAL R.L.)",
          "rspo_membershipNumber": null
        }
      },
      {
        "millName": "SILIMPOPON",
        "cert": "Not RSPO Certified",
        "latitude": 4.3253,
        "longitude": 117.47736,
        "operator": {
          "name": "SYARIKAT KRETAM MILL SDN BHD",
          "rspo_membershipNumber": null
        }
      },
      {
        "millName": "BUKIT BARISAN INDAH PRIMA",
        "cert": "Not RSPO Certified",
        "latitude": -1.33962,
        "longitude": 103.45538,
        "operator": {
          "name": "BUKIT BARISAN INDAH PRIMA",
          "rspo_membershipNumber": null
        }
      },
      {
        "millName": "PADANG HALABAN",
        "cert": "RSPO Certified",
        "latitude": 2.31917,
        "longitude": 99.83944,
        "operator": {
          "name": "SINAR MAS AGRO RESOURCES AND TECHNOLOGY",
          "rspo_membershipNumber": null
        }
      },
      {
        "millName": "ARJUNA UTAMA SAWIT",
        "cert": "Not RSPO Certified",
        "latitude": -2.25303,
        "longitude": 113.37915,
        "operator": {
          "name": "ARJUNA UTAMA SAWIT",
          "rspo_membershipNumber": null
        }
      },
      {
        "millName": "GUNUNG MELAYU II",
        "cert": "RSPO Certified",
        "latitude": 2.7494400000000003,
        "longitude": 99.46972,
        "operator": {
          "name": "GUNUNG MELAYU",
          "rspo_membershipNumber": null
        }
      },
      {
        "millName": "PALMAS DEL MACHAQUILA",
        "cert": "Not RSPO Certified",
        "latitude": 16.12298,
        "longitude": -89.94789,
        "operator": {
          "name": "AGROPECUARIA NUEVO SAN CARLOS S.A.",
          "rspo_membershipNumber": null
        }
      },
      {
        "millName": "DESA TALISAI",
        "cert": "Not RSPO Certified",
        "latitude": 5.70636,
        "longitude": 117.53585,
        "operator": {
          "name": "IJM EDIBLE OILS SDN BHD",
          "rspo_membershipNumber": null
        }
      },
      {
        "millName": "GUNUNG ARU",
        "cert": "RSPO Certified",
        "latitude": -3.4947199999999996,
        "longitude": 116.16667,
        "operator": {
          "name": "BERSAMA SEJAHTERA SAKTI",
          "rspo_membershipNumber": null
        }
      },
      {
        "millName": "UNIT TALO PINO",
        "cert": "Not RSPO Certified",
        "latitude": -4.24671,
        "longitude": 102.71249,
        "operator": {
          "name": "PERKEBUNAN NUSANTARA VII",
          "rspo_membershipNumber": null
        }
      },
      {
        "millName": "PKS 4",
        "cert": "RSPO Certified",
        "latitude": 1.15178,
        "longitude": 116.74633,
        "operator": {
          "name": "DHARMA SATYA NUSANTARA",
          "rspo_membershipNumber": null
        }
      },
      {
        "millName": "SUBUR AGRO MAKMUR",
        "cert": "Not RSPO Certified",
        "latitude": -2.6527700000000003,
        "longitude": 114.97066000000001,
        "operator": {
          "name": "SUBUR AGRO MAKMUR",
          "rspo_membershipNumber": null
        }
      },
      {
        "millName": "GIRAM (SOU 29)",
        "cert": "RSPO Certified",
        "latitude": 4.586790000000001,
        "longitude": 118.19391,
        "operator": {
          "name": "SIME DARBY PLANTATION BHD",
          "rspo_membershipNumber": null
        }
      },
      {
        "millName": "SUNGAI SEPETI",
        "cert": "Not RSPO Certified",
        "latitude": -0.8290000000000001,
        "longitude": 109.88604,
        "operator": {
          "name": "KALIMANTAN AGRO PUSAKA",
          "rspo_membershipNumber": null
        }
      },
      {
        "millName": "MUSTIKA AGUNG SARANA SEJAHTERA",
        "cert": "Not RSPO Certified",
        "latitude": 1.75,
        "longitude": 100.93333,
        "operator": {
          "name": "MUSTIKA AGUNG SARANA SEJAHTERA",
          "rspo_membershipNumber": null
        }
      },
      {
        "millName": "SUKAMANDANG",
        "cert": "RSPO Certified",
        "latitude": -2.06215,
        "longitude": 112.31537,
        "operator": {
          "name": "KRIDATAMA LANCAR",
          "rspo_membershipNumber": null
        }
      },
      {
        "millName": "BINABARU",
        "cert": "Not RSPO Certified",
        "latitude": 0.20895,
        "longitude": 101.27608000000001,
        "operator": {
          "name": "SWASTISIDDHI AMAGRA",
          "rspo_membershipNumber": null
        }
      },
      {
        "millName": "PAGOH (SOU 19)",
        "cert": "RSPO Certified",
        "latitude": 2.07742,
        "longitude": 102.71852,
        "operator": {
          "name": "SIME DARBY PLANTATION BHD",
          "rspo_membershipNumber": null
        }
      },
      {
        "millName": "SEKIET KALTIM",
        "cert": "Not RSPO Certified",
        "latitude": -1.48406,
        "longitude": 116.31728000000001,
        "operator": {
          "name": "SAHABAT SAWIT SEJAHTERA",
          "rspo_membershipNumber": null
        }
      },
      {
        "millName": "ARING A",
        "cert": "RSPO Certified",
        "latitude": 4.94083,
        "longitude": 102.36417,
        "operator": {
          "name": "FGV PALM INDUSTRIES SDN BHD",
          "rspo_membershipNumber": null
        }
      },
      {
        "millName": "CAHAYA MUDA PERAK",
        "cert": "Not RSPO Certified",
        "latitude": 4.16097,
        "longitude": 101.28291999999999,
        "operator": {
          "name": "SYARIKAT CAHAYA MUDA PERAK (OIL MILL) SDN BHD",
          "rspo_membershipNumber": null
        }
      },
      {
        "millName": "PINANG AWAM",
        "cert": "RSPO Certified",
        "latitude": 1.84283,
        "longitude": 100.20314,
        "operator": {
          "name": "PERKEBUNAN MILANO",
          "rspo_membershipNumber": null
        }
      },
      {
        "millName": "REPSA I",
        "cert": "Not RSPO Certified",
        "latitude": 16.11867,
        "longitude": -90.07181,
        "operator": {
          "name": "REFORESTADORA DE PALMA DEL PETEN S.A. (REPSA)",
          "rspo_membershipNumber": null
        }
      },
      {
        "millName": "JENGKA 8",
        "cert": "Not RSPO Certified",
        "latitude": 3.82306,
        "longitude": 102.50694,
        "operator": {
          "name": "FGV PALM INDUSTRIES SDN BHD",
          "rspo_membershipNumber": null
        }
      },
      {
        "millName": "CITRA BUMI AGRO",
        "cert": "Not RSPO Certified",
        "latitude": 0.99577,
        "longitude": 100.6169,
        "operator": {
          "name": "CITRA BUMI AGRO",
          "rspo_membershipNumber": null
        }
      },
      {
        "millName": "BATANG KULIM",
        "cert": "RSPO Certified",
        "latitude": 0.07704,
        "longitude": 102.03084,
        "operator": {
          "name": "MUSIM MAS",
          "rspo_membershipNumber": null
        }
      },
      {
        "millName": "AUSTINDO NUSANTARA JAYA AGRI SIAIS",
        "cert": "RSPO Certified",
        "latitude": 1.17442,
        "longitude": 99.15518,
        "operator": {
          "name": "AUSTINDO NUSANTARA JAYA AGRI SIAIS",
          "rspo_membershipNumber": null
        }
      },
      {
        "millName": "ANUGERAH TANI MAKMUR",
        "cert": "Not RSPO Certified",
        "latitude": 0.53622,
        "longitude": 101.60202,
        "operator": {
          "name": "ANUGERAH TANI MAKMUR",
          "rspo_membershipNumber": null
        }
      },
      {
        "millName": "SIBISA MANGANTUR",
        "cert": "Not RSPO Certified",
        "latitude": 1.60608,
        "longitude": 100.23828,
        "operator": {
          "name": "TOR GANDA",
          "rspo_membershipNumber": null
        }
      },
      {
        "millName": "NGABANG",
        "cert": "Not RSPO Certified",
        "latitude": 0.34367,
        "longitude": 109.93865,
        "operator": {
          "name": "PERKEBUNAN NUSANTARA XIII",
          "rspo_membershipNumber": null
        }
      },
      {
        "millName": "VEETAR",
        "cert": "Not RSPO Certified",
        "latitude": 5.3364,
        "longitude": 116.94254,
        "operator": {
          "name": "VEETAR PALM OIL MILL SDN BHD",
          "rspo_membershipNumber": null
        }
      },
      {
        "millName": "PALMA GEMILANG KENCANA",
        "cert": "Not RSPO Certified",
        "latitude": -1.29918,
        "longitude": 103.48658,
        "operator": {
          "name": "PALMA GEMILANG KENCANA",
          "rspo_membershipNumber": null
        }
      },
      {
        "millName": "AGRINDO SAWIT MANDIRI",
        "cert": "Not RSPO Certified",
        "latitude": -2.34548,
        "longitude": 112.30618,
        "operator": {
          "name": "AGRINDO SAWIT MANDIRI",
          "rspo_membershipNumber": null
        }
      },
      {
        "millName": "RAMARAMA",
        "cert": "RSPO Certified",
        "latitude": 0.5334899999999999,
        "longitude": 101.07638,
        "operator": {
          "name": "RAMAJAYA PRAMUKTI",
          "rspo_membershipNumber": null
        }
      },
      {
        "millName": "PALMCI ANTENNE 1",
        "cert": "Not RSPO Certified",
        "latitude": 5.2005,
        "longitude": -3.0380000000000003,
        "operator": {
          "name": "PALMCI",
          "rspo_membershipNumber": null
        }
      },
      {
        "millName": "PERANAP",
        "cert": "RSPO Certified",
        "latitude": -0.58472,
        "longitude": 102.01944,
        "operator": {
          "name": "RIGUNAS AGRI UTAMA",
          "rspo_membershipNumber": null
        }
      },
      {
        "millName": "SELANCAR 2A",
        "cert": "Not RSPO Certified",
        "latitude": 2.6522,
        "longitude": 103.01899999999999,
        "operator": {
          "name": "FGV PALM INDUSTRIES SDN BHD",
          "rspo_membershipNumber": null
        }
      },
      {
        "millName": "EXTRACTORA DEL ATLANTICO",
        "cert": "RSPO Certified",
        "latitude": 15.58296,
        "longitude": -88.55981,
        "operator": {
          "name": "EXTRACTORA LA FRANCIA / AGROCARIBE",
          "rspo_membershipNumber": null
        }
      },
      {
        "millName": "JAYA GEMILANG SUKSES",
        "cert": "Not RSPO Certified",
        "latitude": 1.59869,
        "longitude": 100.90522,
        "operator": {
          "name": "JAYA GEMILANG SUKSES",
          "rspo_membershipNumber": null
        }
      },
      {
        "millName": "SINTONG ABADI",
        "cert": "Not RSPO Certified",
        "latitude": 2.9239,
        "longitude": 99.70737,
        "operator": {
          "name": "SINTONG ABADI",
          "rspo_membershipNumber": null
        }
      },
      {
        "millName": "KARUNIA KENCANA PERMAI SEJATI",
        "cert": "RSPO Certified",
        "latitude": -2.23985,
        "longitude": 112.63045,
        "operator": {
          "name": "KARUNIA KENCANA PERMAI SEJATI",
          "rspo_membershipNumber": null
        }
      },
      {
        "millName": "PUTERA MANUNGGAL PERKASA",
        "cert": "Not RSPO Certified",
        "latitude": -1.7845400000000002,
        "longitude": 132.45735,
        "operator": {
          "name": "PUTERA MANUNGGAL PERKASA",
          "rspo_membershipNumber": null
        }
      },
      {
        "millName": "EXTRACTORA SOPALIN",
        "cert": "Not RSPO Certified",
        "latitude": 0.04326,
        "longitude": -79.36905,
        "operator": {
          "name": "PALMAC",
          "rspo_membershipNumber": null
        }
      },
      {
        "millName": "AGROIPSA - PALENQUE",
        "cert": "Not RSPO Certified",
        "latitude": 17.579,
        "longitude": -91.94194,
        "operator": {
          "name": "OLEOPALMA",
          "rspo_membershipNumber": null
        }
      },
      {
        "millName": "PLANTA EXTRACTORA PALCASA",
        "cert": "Not RSPO Certified",
        "latitude": 15.49886,
        "longitude": -87.70364000000001,
        "operator": {
          "name": "PALMAS CENTROAMERICANAS S.A. DE C.V. (PALCASA)",
          "rspo_membershipNumber": null
        }
      },
      {
        "millName": "LIMPAH SEJAHTERA",
        "cert": "Not RSPO Certified",
        "latitude": -1.71623,
        "longitude": 110.35436999999999,
        "operator": {
          "name": "LIMPAH SEJAHTERA",
          "rspo_membershipNumber": null
        }
      },
      {
        "millName": "SUMBER SAWIT JAYA LESTARI",
        "cert": "Not RSPO Certified",
        "latitude": 2.7615,
        "longitude": 99.95894,
        "operator": {
          "name": "SUMBER SAWIT JAYA LESTARI",
          "rspo_membershipNumber": null
        }
      },
      {
        "millName": "MASKAPAI PERKEBUAN LEIDONG WEST",
        "cert": "RSPO Certified",
        "latitude": -1.9013900000000001,
        "longitude": 105.47639,
        "operator": {
          "name": "MASKAPAI PERKEBUNAN LEIDONG WEST INDONESIA",
          "rspo_membershipNumber": null
        }
      },
      {
        "millName": "PASOH",
        "cert": "Not RSPO Certified",
        "latitude": 3.01408,
        "longitude": 102.28623,
        "operator": {
          "name": "FGV PALM INDUSTRIES SDN BHD",
          "rspo_membershipNumber": null
        }
      },
      {
        "millName": "BATU KAPUR",
        "cert": "Not RSPO Certified",
        "latitude": -2.94266,
        "longitude": 116.04745,
        "operator": {
          "name": "SINAR MAS AGRO RESOURCES AND TECHNOLOGY",
          "rspo_membershipNumber": null
        }
      },
      {
        "millName": "EKA DURA INDONESIA",
        "cert": "Not RSPO Certified",
        "latitude": 0.88425,
        "longitude": 100.61168,
        "operator": {
          "name": "EKA DURA INDONESIA",
          "rspo_membershipNumber": null
        }
      },
      {
        "millName": "SEMUNTAI",
        "cert": "Not RSPO Certified",
        "latitude": 0.05935,
        "longitude": 110.74968,
        "operator": {
          "name": "MULTI PRIMA ENTAKAI",
          "rspo_membershipNumber": null
        }
      },
      {
        "millName": "PALMCI GBAPET",
        "cert": "Not RSPO Certified",
        "latitude": 4.9695,
        "longitude": -7.504860000000001,
        "operator": {
          "name": "PALMCI",
          "rspo_membershipNumber": null
        }
      },
      {
        "millName": "EXTRACTORA TARRAGONA",
        "cert": "Not RSPO Certified",
        "latitude": -0.08655,
        "longitude": -79.31715,
        "operator": {
          "name": "CHEMARAPALM",
          "rspo_membershipNumber": null
        }
      },
      {
        "millName": "LADANG RAJA UDANG",
        "cert": "Not RSPO Certified",
        "latitude": 1.66534,
        "longitude": 111.20196000000001,
        "operator": {
          "name": "THP SARIBAS SDN BHD",
          "rspo_membershipNumber": null
        }
      },
      {
        "millName": "HUTAN SAWIT LESTARI",
        "cert": "Not RSPO Certified",
        "latitude": -1.6990599999999998,
        "longitude": 112.87718999999998,
        "operator": {
          "name": "HUTAN SAWIT LESTARI",
          "rspo_membershipNumber": null
        }
      },
      {
        "millName": "SRI JELUTUNG",
        "cert": "Not RSPO Certified",
        "latitude": 3.3515300000000003,
        "longitude": 103.12782,
        "operator": {
          "name": "TANAH MAKMUR BERHAD",
          "rspo_membershipNumber": null
        }
      },
      {
        "millName": "AGRICOLA TORNABE SA DE CV (AGROTOR)",
        "cert": "RSPO Certified",
        "latitude": 15.73202,
        "longitude": -87.58903000000001,
        "operator": {
          "name": "AGRICOLA TORNABE SA DE CV (AGROTOR)",
          "rspo_membershipNumber": null
        }
      },
      {
        "millName": "SAPUGA S.A.",
        "cert": "Not RSPO Certified",
        "latitude": 4.1479800000000004,
        "longitude": -72.03718,
        "operator": {
          "name": "SAPUGA S.A.",
          "rspo_membershipNumber": null
        }
      },
      {
        "millName": "DWI MITRA DAYA RIAU",
        "cert": "Not RSPO Certified",
        "latitude": 1.81387,
        "longitude": 100.39846999999999,
        "operator": {
          "name": "DWI MITRA DAYA RIAU",
          "rspo_membershipNumber": null
        }
      },
      {
        "millName": "NILO 2",
        "cert": "RSPO Certified",
        "latitude": 0.3525,
        "longitude": 102.09472,
        "operator": {
          "name": "ADEI PLANTATION AND INDUSTRY",
          "rspo_membershipNumber": null
        }
      },
      {
        "millName": "BUMI PALMA",
        "cert": "RSPO Certified",
        "latitude": -0.59806,
        "longitude": 102.98333000000001,
        "operator": {
          "name": "BUMIPALMA LESTARIPERSADA",
          "rspo_membershipNumber": null
        }
      },
      {
        "millName": "YONG PENG (SOU 19A)",
        "cert": "Not RSPO Certified",
        "latitude": 2.05881,
        "longitude": 103.14839,
        "operator": {
          "name": "SIME DARBY PLANTATION BHD",
          "rspo_membershipNumber": null
        }
      },
      {
        "millName": "PUJUD KARYA SAWIT",
        "cert": "Not RSPO Certified",
        "latitude": 1.37615,
        "longitude": 100.52885,
        "operator": {
          "name": "PUJUD KARYA SAWIT",
          "rspo_membershipNumber": null
        }
      },
      {
        "millName": "SURYA GEMILANG AGRO MANDIRI",
        "cert": "Not RSPO Certified",
        "latitude": -1.2712299999999999,
        "longitude": 103.81444,
        "operator": {
          "name": "SURYA GEMILANG AGRO MANDIRI",
          "rspo_membershipNumber": null
        }
      },
      {
        "millName": "THONGMONGKOL PALM OIL MILL",
        "cert": "Not RSPO Certified",
        "latitude": 11.21285,
        "longitude": 99.4046,
        "operator": {
          "name": "THONG MONGKOL PALM INDUSTRY COMPANY LIMITED",
          "rspo_membershipNumber": null
        }
      },
      {
        "millName": "PALMA SUR S.A.",
        "cert": "Not RSPO Certified",
        "latitude": 16.42833,
        "longitude": -90.34189,
        "operator": {
          "name": "PALMA SUR S.A.",
          "rspo_membershipNumber": null
        }
      },
      {
        "millName": "NAPAL",
        "cert": "Not RSPO Certified",
        "latitude": -0.67747,
        "longitude": 101.91358000000001,
        "operator": {
          "name": "IDRIPLANT",
          "rspo_membershipNumber": null
        }
      },
      {
        "millName": "PRIMA JAYA LESTARI UTAMA",
        "cert": "Not RSPO Certified",
        "latitude": 2.32384,
        "longitude": 99.73444,
        "operator": {
          "name": "PRIMA JAYA LESTARI UTAMA",
          "rspo_membershipNumber": null
        }
      },
      {
        "millName": "PALMERAS DEL ECUADOR",
        "cert": "Not RSPO Certified",
        "latitude": -0.28518000000000004,
        "longitude": -76.56585,
        "operator": {
          "name": "PALMERAS DEL ECUADOR",
          "rspo_membershipNumber": null
        }
      },
      {
        "millName": "PRESCO PLC",
        "cert": "Not RSPO Certified",
        "latitude": 6.13914,
        "longitude": 5.7139999999999995,
        "operator": {
          "name": "PRESCO PLC",
          "rspo_membershipNumber": null
        }
      },
      {
        "millName": "JALUR PUSAKA SAKTI KUMALA",
        "cert": "Not RSPO Certified",
        "latitude": 0.39974,
        "longitude": 101.79672,
        "operator": {
          "name": "JALUR PUSAKA SAKTI KUMALA",
          "rspo_membershipNumber": null
        }
      },
      {
        "millName": "LUBOK ANTU",
        "cert": "Not RSPO Certified",
        "latitude": 1.16816,
        "longitude": 111.76196999999999,
        "operator": {
          "name": "LUBOK ANTU PALM OIL MILL SDN BHD",
          "rspo_membershipNumber": null
        }
      },
      {
        "millName": "SUMBER MAKMUR JAYA",
        "cert": "Not RSPO Certified",
        "latitude": 4.03337,
        "longitude": 98.30152,
        "operator": {
          "name": "SUMBER MAKMUR JAYA",
          "rspo_membershipNumber": null
        }
      },
      {
        "millName": "JERAM PADANG",
        "cert": "RSPO Certified",
        "latitude": 2.7351099999999997,
        "longitude": 102.4085,
        "operator": {
          "name": "KUALA LUMPUR KEPONG BERHAD",
          "rspo_membershipNumber": "1-0014-04-000-00"
        }
      },
      {
        "millName": "BUKIT PERAK",
        "cert": "RSPO Certified",
        "latitude": -1.82015,
        "longitude": 105.5509,
        "operator": {
          "name": "BUMI PERMAI LESTARI",
          "rspo_membershipNumber": null
        }
      },
      {
        "millName": "UMAS",
        "cert": "Not RSPO Certified",
        "latitude": 4.49691,
        "longitude": 117.65058,
        "operator": {
          "name": "FGV PALM INDUSTRIES SDN BHD",
          "rspo_membershipNumber": null
        }
      },
      {
        "millName": "SEI BARUHUR",
        "cert": "RSPO Certified",
        "latitude": 1.68848,
        "longitude": 100.28577,
        "operator": {
          "name": "PERKEBUNAN NUSANTARA III",
          "rspo_membershipNumber": null
        }
      },
      {
        "millName": "AGRIVAR BONOUA",
        "cert": "RSPO Certified",
        "latitude": 5.2817300000000005,
        "longitude": -3.5282,
        "operator": {
          "name": "AGRIVAR",
          "rspo_membershipNumber": null
        }
      },
      {
        "millName": "MUARA BULIAN",
        "cert": "RSPO Certified",
        "latitude": -1.5851,
        "longitude": 103.20121999999999,
        "operator": {
          "name": "INTI INDOSAWIT SUBUR",
          "rspo_membershipNumber": null
        }
      },
      {
        "millName": "THAITALLOW AND OIL CO.LTD (SITE 1)",
        "cert": "RSPO Certified",
        "latitude": 8.53365,
        "longitude": 99.10428,
        "operator": {
          "name": "THAITALLOW AND OIL CO.LTD",
          "rspo_membershipNumber": null
        }
      },
      {
        "millName": "BUKIT MAS",
        "cert": "Not RSPO Certified",
        "latitude": 4.01302,
        "longitude": 98.19435,
        "operator": {
          "name": "ANUGERAH LANGKAT MAKMUR",
          "rspo_membershipNumber": null
        }
      },
      {
        "millName": "TUNJUK LAUT",
        "cert": "Not RSPO Certified",
        "latitude": 1.9737,
        "longitude": 103.979,
        "operator": {
          "name": "AWAN TIMUR MANAGEMENT SDN BHD",
          "rspo_membershipNumber": null
        }
      },
      {
        "millName": "UJUNG TANJUNG",
        "cert": "RSPO Certified",
        "latitude": 0.96973,
        "longitude": 101.26075,
        "operator": {
          "name": "IVO MAS TUNGGAL",
          "rspo_membershipNumber": null
        }
      },
      {
        "millName": "AUR GADING",
        "cert": "Not RSPO Certified",
        "latitude": -1.8627,
        "longitude": 103.0207,
        "operator": {
          "name": "PERKEBUNAN NUSANTARA VI",
          "rspo_membershipNumber": null
        }
      },
      {
        "millName": "PRIMA PALM LATEX INDUSTRI",
        "cert": "Not RSPO Certified",
        "latitude": 2.78305,
        "longitude": 99.25397,
        "operator": {
          "name": "PRIMA PALM LATEX INDUSTRI",
          "rspo_membershipNumber": null
        }
      },
      {
        "millName": "DIMEX SELARAS",
        "cert": "Not RSPO Certified",
        "latitude": -6.61028,
        "longitude": 140.56483,
        "operator": {
          "name": "TUNAS SAWA ERMA",
          "rspo_membershipNumber": null
        }
      },
      {
        "millName": "SAWIT ASAHAN INDAH",
        "cert": "Not RSPO Certified",
        "latitude": 0.76131,
        "longitude": 100.51901,
        "operator": {
          "name": "SAWIT ASAHAN INDAH",
          "rspo_membershipNumber": null
        }
      },
      {
        "millName": "LAM SOON",
        "cert": "RSPO Certified",
        "latitude": 5.25483,
        "longitude": 118.17517,
        "operator": {
          "name": "LAM SOON PLANTATIONS SDN BHD",
          "rspo_membershipNumber": null
        }
      },
      {
        "millName": "CLASSIC",
        "cert": "Not RSPO Certified",
        "latitude": 2.60089,
        "longitude": 102.62464,
        "operator": {
          "name": "CLASSIC PALM OIL MILL SDN BHD",
          "rspo_membershipNumber": null
        }
      },
      {
        "millName": "PERKEBUNAN LEMBAH BHAKTI 1",
        "cert": "Not RSPO Certified",
        "latitude": 2.3141599999999998,
        "longitude": 97.99571999999999,
        "operator": {
          "name": "PERKEBUNAN LEMBAH BHAKTI",
          "rspo_membershipNumber": null
        }
      },
      {
        "millName": "PANTAI REMIS",
        "cert": "Not RSPO Certified",
        "latitude": 4.36716,
        "longitude": 100.69615,
        "operator": {
          "name": "PANTAI REMIS PALM OIL MILL SDN BHD",
          "rspo_membershipNumber": null
        }
      },
      {
        "millName": "SAMUDERA SAWIT NABATI",
        "cert": "Not RSPO Certified",
        "latitude": 2.76673,
        "longitude": 97.9367,
        "operator": {
          "name": "SAMUDERA SAWIT NABATI",
          "rspo_membershipNumber": null
        }
      },
      {
        "millName": "TRANG PLANT",
        "cert": "RSPO Certified",
        "latitude": 7.71,
        "longitude": 99.3205,
        "operator": {
          "name": "LAM SOON (THAILAND)",
          "rspo_membershipNumber": null
        }
      },
      {
        "millName": "BELIDA",
        "cert": "Not RSPO Certified",
        "latitude": -3.8366300000000004,
        "longitude": 104.96951999999999,
        "operator": {
          "name": "AEK TARUM",
          "rspo_membershipNumber": null
        }
      },
      {
        "millName": "TINBARAP",
        "cert": "Not RSPO Certified",
        "latitude": 4.0219,
        "longitude": 114.2876,
        "operator": {
          "name": "SARAWAK OIL PALMS BERHAD",
          "rspo_membershipNumber": null
        }
      },
      {
        "millName": "LETAWA",
        "cert": "Not RSPO Certified",
        "latitude": -1.33213,
        "longitude": 119.42823999999999,
        "operator": {
          "name": "LETAWA",
          "rspo_membershipNumber": null
        }
      },
      {
        "millName": "JORONG FACTORY",
        "cert": "Not RSPO Certified",
        "latitude": -3.94361,
        "longitude": 114.95333000000001,
        "operator": {
          "name": "CITRA PUTRA KEBUN ASRI",
          "rspo_membershipNumber": null
        }
      },
      {
        "millName": "SEGUNTUNG",
        "cert": "Not RSPO Certified",
        "latitude": 0.015309999999999999,
        "longitude": 116.96843999999999,
        "operator": {
          "name": "MAJU KALIMANTAN HADAPAN",
          "rspo_membershipNumber": null
        }
      },
      {
        "millName": "NAULI SAWIT",
        "cert": "Not RSPO Certified",
        "latitude": 2.08409,
        "longitude": 98.31222,
        "operator": {
          "name": "NAULI SAWIT",
          "rspo_membershipNumber": null
        }
      },
      {
        "millName": "MASAI",
        "cert": "RSPO Certified",
        "latitude": 1.54053,
        "longitude": 103.96495,
        "operator": {
          "name": "KECK SENG (M) BERHAD",
          "rspo_membershipNumber": null
        }
      },
      {
        "millName": "SERASA",
        "cert": "Not RSPO Certified",
        "latitude": 5.0995,
        "longitude": 102.17583,
        "operator": {
          "name": "LADANG SERASA SDN BHD",
          "rspo_membershipNumber": null
        }
      },
      {
        "millName": "BIOPLANTA PALMERA",
        "cert": "Not RSPO Certified",
        "latitude": 7.56772,
        "longitude": -76.61233,
        "operator": {
          "name": "BIOPLANTA PALMERA PARA EL DESARROLLO S.A.",
          "rspo_membershipNumber": null
        }
      },
      {
        "millName": "CHAAH (SOU 20)",
        "cert": "RSPO Certified",
        "latitude": 2.14873,
        "longitude": 102.97399,
        "operator": {
          "name": "SIME DARBY PLANTATION BHD",
          "rspo_membershipNumber": null
        }
      },
      {
        "millName": "JEROCO 2",
        "cert": "RSPO Certified",
        "latitude": 5.431109999999999,
        "longitude": 118.41722,
        "operator": {
          "name": "JEROCO PLANTATIONS SDN BHD",
          "rspo_membershipNumber": null
        }
      },
      {
        "millName": "LINGGA TIGA SAWIT",
        "cert": "Not RSPO Certified",
        "latitude": 2.01444,
        "longitude": 99.87968000000001,
        "operator": {
          "name": "LINGGA TIGA SAWIT",
          "rspo_membershipNumber": null
        }
      },
      {
        "millName": "KAMPUNG BARU",
        "cert": "Not RSPO Certified",
        "latitude": -1.07892,
        "longitude": 103.00793,
        "operator": {
          "name": "ANEKA PURA MULTI KERTA",
          "rspo_membershipNumber": null
        }
      },
      {
        "millName": "BUKIT BORNEO SEJAHTERA",
        "cert": "Not RSPO Certified",
        "latitude": 3.4645900000000003,
        "longitude": 116.60576999999999,
        "operator": {
          "name": "BUKIT BORNEO SEJAHTERA",
          "rspo_membershipNumber": null
        }
      },
      {
        "millName": "RH BALINGIAN",
        "cert": "Not RSPO Certified",
        "latitude": 2.98105,
        "longitude": 112.4788,
        "operator": {
          "name": "RH BALINGIAN PALM OIL MILL SDN BHD",
          "rspo_membershipNumber": null
        }
      },
      {
        "millName": "MERCU PUSPITA",
        "cert": "Not RSPO Certified",
        "latitude": 5.20581,
        "longitude": 119.01373999999998,
        "operator": {
          "name": "FGV PALM INDUSTRIES SDN BHD",
          "rspo_membershipNumber": null
        }
      },
      {
        "millName": "GENTING TANJUNG",
        "cert": "RSPO Certified",
        "latitude": 5.422630000000001,
        "longitude": 118.27315,
        "operator": {
          "name": "GENTING SDC SDN BHD",
          "rspo_membershipNumber": null
        }
      },
      {
        "millName": "MUKAH",
        "cert": "Not RSPO Certified",
        "latitude": 2.65083,
        "longitude": 112.33008999999998,
        "operator": {
          "name": "SARAWAK PLANTATION AGRICULTURE DEVELOPMENT (SPAD) SDN BHD",
          "rspo_membershipNumber": null
        }
      },
      {
        "millName": "CIPTA GRAHA",
        "cert": "Not RSPO Certified",
        "latitude": 1,
        "longitude": 117.76899999999999,
        "operator": {
          "name": "MULTI PACIFIC INTERNATIONAL",
          "rspo_membershipNumber": null
        }
      },
      {
        "millName": "BORNEO AGRO-RESOURCES",
        "cert": "Not RSPO Certified",
        "latitude": 3.2763,
        "longitude": 113.42661000000001,
        "operator": {
          "name": "BORNEO AGRO-RESOURCES SDN BHD",
          "rspo_membershipNumber": null
        }
      },
      {
        "millName": "TEREH",
        "cert": "RSPO Certified",
        "latitude": 2.21702,
        "longitude": 103.35236,
        "operator": {
          "name": "EPA MANAGEMENT SDN BHD",
          "rspo_membershipNumber": null
        }
      },
      {
        "millName": "SINAR SAWIT SUBUR LESTARI",
        "cert": "Not RSPO Certified",
        "latitude": 1.5903399999999999,
        "longitude": 99.87299,
        "operator": {
          "name": "SINAR SAWIT SUBUR LESTARI",
          "rspo_membershipNumber": null
        }
      },
      {
        "millName": "MUSTIKA AGUNG SAWIT SEJAHTERA",
        "cert": "Not RSPO Certified",
        "latitude": 1.22424,
        "longitude": 101.24240999999999,
        "operator": {
          "name": "MUSTIKA AGUNG SAWIT SEJAHTERA",
          "rspo_membershipNumber": null
        }
      },
      {
        "millName": "SIRIHAM",
        "cert": "Not RSPO Certified",
        "latitude": -2.28375,
        "longitude": 110.86827,
        "operator": {
          "name": "POLIPLANT SEJAHTERA",
          "rspo_membershipNumber": null
        }
      },
      {
        "millName": "SANDAU",
        "cert": "Not RSPO Certified",
        "latitude": 5.204330000000001,
        "longitude": 118.13413999999999,
        "operator": {
          "name": "SAWIT KINABALU SDN BHD",
          "rspo_membershipNumber": null
        }
      },
      {
        "millName": "MUTIARANUSA AGRO SEJAHTERA",
        "cert": "Not RSPO Certified",
        "latitude": 2.26924,
        "longitude": 99.76791999999999,
        "operator": {
          "name": "MUTIARA NUSA AGRO SEJAHTERA",
          "rspo_membershipNumber": null
        }
      },
      {
        "millName": "LA JOYA",
        "cert": "Not RSPO Certified",
        "latitude": -0.07200000000000001,
        "longitude": -79.4272,
        "operator": {
          "name": "EXTRACTORA LA JOYA CIA LTDA",
          "rspo_membershipNumber": null
        }
      },
      {
        "millName": "KENINGAU POM",
        "cert": "Not RSPO Certified",
        "latitude": 5.10935,
        "longitude": 116.09415,
        "operator": {
          "name": "KENINGAU PALM OIL MILL SDN BHD",
          "rspo_membershipNumber": null
        }
      },
      {
        "millName": "SUNGAI BENGKAL",
        "cert": "RSPO Certified",
        "latitude": -1.59056,
        "longitude": 102.61,
        "operator": {
          "name": "SATYA KISMA USAHA",
          "rspo_membershipNumber": null
        }
      },
      {
        "millName": "SIMPANG DAMAR",
        "cert": "Not RSPO Certified",
        "latitude": 1.9473799999999999,
        "longitude": 100.73711999999999,
        "operator": {
          "name": "JATIM JAYA PERKASA",
          "rspo_membershipNumber": null
        }
      },
      {
        "millName": "BALUNG",
        "cert": "Not RSPO Certified",
        "latitude": 4.37906,
        "longitude": 118.18611999999999,
        "operator": {
          "name": "BALUNG PALM OIL MILL SDN BHD",
          "rspo_membershipNumber": null
        }
      },
      {
        "millName": "MANDAU",
        "cert": "RSPO Certified",
        "latitude": 1.081944,
        "longitude": 101.333361,
        "operator": {
          "name": "ADEI PLANTATION AND INDUSTRY",
          "rspo_membershipNumber": null
        }
      },
      {
        "millName": "SERDANG CEMERLANG",
        "cert": "Not RSPO Certified",
        "latitude": 3.76577,
        "longitude": 98.55497,
        "operator": {
          "name": "SERDANG CEMERLANG",
          "rspo_membershipNumber": null
        }
      },
      {
        "millName": "KOTA GELANGGI",
        "cert": "RSPO Certified",
        "latitude": 3.92173,
        "longitude": 102.48953,
        "operator": {
          "name": "FGV PALM INDUSTRIES SDN BHD",
          "rspo_membershipNumber": null
        }
      },
      {
        "millName": "SILAUT",
        "cert": "Not RSPO Certified",
        "latitude": -2.33088,
        "longitude": 100.99526999999999,
        "operator": {
          "name": "SUMATERA JAYA AGRO LESTARI",
          "rspo_membershipNumber": null
        }
      },
      {
        "millName": "NERAM",
        "cert": "RSPO Certified",
        "latitude": 4.00667,
        "longitude": 103.28860999999999,
        "operator": {
          "name": "FGV PALM INDUSTRIES SDN BHD",
          "rspo_membershipNumber": null
        }
      },
      {
        "millName": "SAWITTA JAYA LAU PAKAM",
        "cert": "Not RSPO Certified",
        "latitude": 3.26042,
        "longitude": 97.965,
        "operator": {
          "name": "SAWITTA JAYA LAU PAKAM",
          "rspo_membershipNumber": null
        }
      },
      {
        "millName": "SWAKARSA SAWIT RAYA",
        "cert": "Not RSPO Certified",
        "latitude": -0.48911000000000004,
        "longitude": 102.47909,
        "operator": {
          "name": "SWAKARSA SAWIT RAYA",
          "rspo_membershipNumber": null
        }
      },
      {
        "millName": "LADANG MAMAHAT",
        "cert": "Not RSPO Certified",
        "latitude": 6.4661,
        "longitude": 117.56882,
        "operator": {
          "name": "THP SABACO SDN BHD",
          "rspo_membershipNumber": null
        }
      },
      {
        "millName": "DOLOK",
        "cert": "Not RSPO Certified",
        "latitude": 3.16491,
        "longitude": 99.43033,
        "operator": {
          "name": "PERUSAHAAN PERKEBUNAN LONDON SUMATRA INDONESIA",
          "rspo_membershipNumber": null
        }
      },
      {
        "millName": "CAKRA",
        "cert": "RSPO Certified",
        "latitude": 0.26533,
        "longitude": 116.26642,
        "operator": {
          "name": "REA KALTIM",
          "rspo_membershipNumber": null
        }
      },
      {
        "millName": "LAMBANG BUMI PERKASA",
        "cert": "Not RSPO Certified",
        "latitude": -4.70179,
        "longitude": 105.3728,
        "operator": {
          "name": "LAMBANG BUMI PERKASA",
          "rspo_membershipNumber": null
        }
      },
      {
        "millName": "SRIJAROEN PALM OIL CO.,LTD.",
        "cert": "RSPO Certified",
        "latitude": 8.290610000000001,
        "longitude": 99.05519,
        "operator": {
          "name": "SRIJAROEN PALM OIL CO.,LTD.",
          "rspo_membershipNumber": "2-0560-15-000-00"
        }
      },
      {
        "millName": "IBUL",
        "cert": "Not RSPO Certified",
        "latitude": -0.8602799999999999,
        "longitude": 101.75083000000001,
        "operator": {
          "name": "TRI BAKTI SARIMAS",
          "rspo_membershipNumber": null
        }
      },
      {
        "millName": "ARYA RAMA PRAKASA",
        "cert": "Not RSPO Certified",
        "latitude": 1.2221600000000001,
        "longitude": 100.38419,
        "operator": {
          "name": "ARYA RAMA PRAKASA",
          "rspo_membershipNumber": null
        }
      },
      {
        "millName": "SAPTA KARYA DAMAI",
        "cert": "Not RSPO Certified",
        "latitude": -2.58287,
        "longitude": 112.62698,
        "operator": {
          "name": "SAPTA KARYA DAMAI",
          "rspo_membershipNumber": null
        }
      },
      {
        "millName": "ABEDOM POM",
        "cert": "RSPO Certified",
        "latitude": 5.311780000000001,
        "longitude": 117.97391999999999,
        "operator": {
          "name": "ABEDON OIL MILL SDN. BHD.",
          "rspo_membershipNumber": null
        }
      },
      {
        "millName": "SEJATI PALMA SEJAHTERA",
        "cert": "Not RSPO Certified",
        "latitude": -2.21223,
        "longitude": 103.80011999999999,
        "operator": {
          "name": "SEJATI PALMA SEJAHTERA",
          "rspo_membershipNumber": null
        }
      },
      {
        "millName": "FORTUNA",
        "cert": "Not RSPO Certified",
        "latitude": 6.0475,
        "longitude": 117.21972,
        "operator": {
          "name": "KILANG KELAPA SAWIT FORTUNA SDN BHD",
          "rspo_membershipNumber": null
        }
      },
      {
        "millName": "SENTOSA KALIMANTAN JAYA",
        "cert": "Not RSPO Certified",
        "latitude": 2.34019,
        "longitude": 118.06188999999999,
        "operator": {
          "name": "SENTOSA KALIMANTAN JAYA",
          "rspo_membershipNumber": null
        }
      },
      {
        "millName": "TOPAZ EMAS",
        "cert": "Not RSPO Certified",
        "latitude": 4.55337,
        "longitude": 100.72559,
        "operator": {
          "name": "TOPAZ EMAS SDN BHD",
          "rspo_membershipNumber": null
        }
      },
      {
        "millName": "AMAL TANI",
        "cert": "Not RSPO Certified",
        "latitude": 3.5883300000000005,
        "longitude": 98.30556,
        "operator": {
          "name": "AMAL TANI",
          "rspo_membershipNumber": null
        }
      },
      {
        "millName": "PPNJ BUKIT BUJANG",
        "cert": "Not RSPO Certified",
        "latitude": 2.79989,
        "longitude": 102.75841,
        "operator": {
          "name": "PERTUBUHAN PELADANG NEGERI JOHOR (PPNJ)",
          "rspo_membershipNumber": null
        }
      },
      {
        "millName": "SEMUNAI SAWIT PERKASA",
        "cert": "Not RSPO Certified",
        "latitude": 1.16359,
        "longitude": 101.27829,
        "operator": {
          "name": "SEMUNAI SAWIT PERKASA",
          "rspo_membershipNumber": null
        }
      },
      {
        "millName": "LUNDU",
        "cert": "Not RSPO Certified",
        "latitude": 1.5093,
        "longitude": 109.90607,
        "operator": {
          "name": "RSB LUNDU PALM OIL MILL SDN BHD",
          "rspo_membershipNumber": null
        }
      },
      {
        "millName": "DALU DALU",
        "cert": "Not RSPO Certified",
        "latitude": 1.17852,
        "longitude": 100.2703,
        "operator": {
          "name": "HUTAHAEAN",
          "rspo_membershipNumber": null
        }
      },
      {
        "millName": "KERRY SAWIT INDONESIA 2",
        "cert": "RSPO Certified",
        "latitude": -2.69695,
        "longitude": 112.48308,
        "operator": {
          "name": "KERRY SAWIT INDONESIA",
          "rspo_membershipNumber": null
        }
      },
      {
        "millName": "PALM LAMPUNG PERSADA",
        "cert": "Not RSPO Certified",
        "latitude": -4.372719999999999,
        "longitude": 104.59980999999999,
        "operator": {
          "name": "PALM LAMPUNG PERSADA",
          "rspo_membershipNumber": null
        }
      },
      {
        "millName": "ABERDI",
        "cert": "Not RSPO Certified",
        "latitude": 8.33257,
        "longitude": 124.9967,
        "operator": {
          "name": "A BROWN ENERGY AND RESOURCES DEVELOPMENT, INC. (ABERDI)",
          "rspo_membershipNumber": null
        }
      },
      {
        "millName": "RAAL",
        "cert": "Not RSPO Certified",
        "latitude": -1.27621,
        "longitude": 103.24873000000001,
        "operator": {
          "name": "RUDY AGUNG AGRA LAKSANA",
          "rspo_membershipNumber": null
        }
      },
      {
        "millName": "DHARMASRAYA PALMA SEJAHTERA",
        "cert": "Not RSPO Certified",
        "latitude": -1.6485299999999998,
        "longitude": 102.92546999999999,
        "operator": {
          "name": "DHARMASRAYA PALMA SEJAHTERA",
          "rspo_membershipNumber": null
        }
      },
      {
        "millName": "BABULU",
        "cert": "Not RSPO Certified",
        "latitude": -1.4923899999999999,
        "longitude": 116.44438999999998,
        "operator": {
          "name": "SUMBER BUNGA SAWIT LESTARI",
          "rspo_membershipNumber": null
        }
      },
      {
        "millName": "SARI LEMBAH SUBUR 2",
        "cert": "Not RSPO Certified",
        "latitude": -0.0020800000000000003,
        "longitude": 102.19641999999999,
        "operator": {
          "name": "SARI LEMBAH SUBUR",
          "rspo_membershipNumber": null
        }
      },
      {
        "millName": "SAMPADI",
        "cert": "Not RSPO Certified",
        "latitude": 1.61955,
        "longitude": 109.94855,
        "operator": {
          "name": "FGV PALM INDUSTRIES SDN BHD",
          "rspo_membershipNumber": null
        }
      },
      {
        "millName": "SUKADAMAI",
        "cert": "RSPO Certified",
        "latitude": 0.68325,
        "longitude": 100.52923,
        "operator": {
          "name": "ROHUL SAWIT INDUSTRI",
          "rspo_membershipNumber": null
        }
      },
      {
        "millName": "THASAE CO-OP",
        "cert": "Not RSPO Certified",
        "latitude": 10.71182,
        "longitude": 99.14378,
        "operator": {
          "name": "THASAE CO-OP",
          "rspo_membershipNumber": null
        }
      },
      {
        "millName": "BUKIT BEREMBUN",
        "cert": "Not RSPO Certified",
        "latitude": 3.0754,
        "longitude": 102.76616,
        "operator": {
          "name": "SOUTHERN KERATONG PLANTATIONS SDN BHD",
          "rspo_membershipNumber": null
        }
      },
      {
        "millName": "DAYA LABUHAN INDAH I",
        "cert": "Not RSPO Certified",
        "latitude": 2.15117,
        "longitude": 99.99117,
        "operator": {
          "name": "DAYA LABUHAN INDAH",
          "rspo_membershipNumber": null
        }
      },
      {
        "millName": "TESO III",
        "cert": "Not RSPO Certified",
        "latitude": -0.24333000000000002,
        "longitude": 101.58363,
        "operator": {
          "name": "CITRA RIAU SARANA",
          "rspo_membershipNumber": null
        }
      },
      {
        "millName": "POLIGROW COLOMBIA LTDA",
        "cert": "Not RSPO Certified",
        "latitude": 2.89091,
        "longitude": -72.14149,
        "operator": {
          "name": "POLIGROW COLOMBIA LTDA",
          "rspo_membershipNumber": null
        }
      },
      {
        "millName": "MITRA ABADIMAS SEJAHTERA",
        "cert": "Not RSPO Certified",
        "latitude": 1.1818600000000001,
        "longitude": 109.43799999999999,
        "operator": {
          "name": "MITRA ABADIMAS SEJAHTERA",
          "rspo_membershipNumber": null
        }
      },
      {
        "millName": "SURYA UTAMA AGROLESTARI",
        "cert": "Not RSPO Certified",
        "latitude": -1.8050599999999999,
        "longitude": 103.43058,
        "operator": {
          "name": "SURYA UTAMA AGROLESTARI",
          "rspo_membershipNumber": null
        }
      },
      {
        "millName": "BIOCASTILLA",
        "cert": "Not RSPO Certified",
        "latitude": 3.82148,
        "longitude": -73.53264,
        "operator": {
          "name": "BIOCASTILLA",
          "rspo_membershipNumber": null
        }
      },
      {
        "millName": "EXTRACTORA LA FRANCIA",
        "cert": "RSPO Certified",
        "latitude": 15.468470000000002,
        "longitude": -88.80941999999999,
        "operator": {
          "name": "EXTRACTORA LA FRANCIA / AGROCARIBE",
          "rspo_membershipNumber": null
        }
      },
      {
        "millName": "BATANG CENAKU",
        "cert": "Not RSPO Certified",
        "latitude": -0.81467,
        "longitude": 102.19,
        "operator": {
          "name": "TASMA PUJA",
          "rspo_membershipNumber": null
        }
      },
      {
        "millName": "PRAKARSA TANI SEJATI",
        "cert": "Not RSPO Certified",
        "latitude": -1.09962,
        "longitude": 110.46815,
        "operator": {
          "name": "PRAKARSA TANI SEJATI",
          "rspo_membershipNumber": null
        }
      },
      {
        "millName": "BUKIT TUNGGAL JAYA",
        "cert": "Not RSPO Certified",
        "latitude": -1.5464,
        "longitude": 110.34401000000001,
        "operator": {
          "name": "LADANG SAWIT MAS",
          "rspo_membershipNumber": null
        }
      },
      {
        "millName": "NAMHONG PALM OIL CO.",
        "cert": "Not RSPO Certified",
        "latitude": 8.26238,
        "longitude": 99.0845,
        "operator": {
          "name": "NAMHONG PALM OIL CO.",
          "rspo_membershipNumber": null
        }
      },
      {
        "millName": "INDUSTRIAL ACEITERA DE LA RAAS",
        "cert": "Not RSPO Certified",
        "latitude": 12.26502,
        "longitude": -83.83003000000001,
        "operator": {
          "name": "COMPAA INDUSTRIAL ACEITERA COTO 54 S.A.",
          "rspo_membershipNumber": null
        }
      },
      {
        "millName": "PINEHILL",
        "cert": "Not RSPO Certified",
        "latitude": 3.9699400000000002,
        "longitude": 101.09662,
        "operator": {
          "name": "PINEHILL PLANTATIONS (MALAYSIA) SDN BHD",
          "rspo_membershipNumber": null
        }
      },
      {
        "millName": "ASIAN PLANTATIONS MILLING",
        "cert": "Not RSPO Certified",
        "latitude": 3.58705,
        "longitude": 114.22587,
        "operator": {
          "name": "ASIAN PLANTATIONS MILLING SDN BHD",
          "rspo_membershipNumber": null
        }
      },
      {
        "millName": "SINTANG RAYA",
        "cert": "Not RSPO Certified",
        "latitude": -0.45264,
        "longitude": 109.2652,
        "operator": {
          "name": "SINTANG RAYA",
          "rspo_membershipNumber": null
        }
      },
      {
        "millName": "KARYA MAKMUR ABADI",
        "cert": "Not RSPO Certified",
        "latitude": -2.0422599999999997,
        "longitude": 112.48997,
        "operator": {
          "name": "KARYA MAKMUR ABADI",
          "rspo_membershipNumber": null
        }
      },
      {
        "millName": "SUNGAI PAGAR",
        "cert": "Not RSPO Certified",
        "latitude": 0.32605,
        "longitude": 101.35253,
        "operator": {
          "name": "PERKEBUNAN NUSANTARA V",
          "rspo_membershipNumber": null
        }
      },
      {
        "millName": "WEALTH LEAP (HARVARD MASTER)",
        "cert": "Not RSPO Certified",
        "latitude": 3.7546,
        "longitude": 113.84912,
        "operator": {
          "name": "WEALTH LEAP SDN BHD (HARVARD MASTER)",
          "rspo_membershipNumber": null
        }
      },
      {
        "millName": "SRI GANDA",
        "cert": "Not RSPO Certified",
        "latitude": 3.9131,
        "longitude": 101.19875,
        "operator": {
          "name": "SRI GANDA OIL MILL SDN BHD",
          "rspo_membershipNumber": null
        }
      },
      {
        "millName": "CHERSONESE (SOU 2)",
        "cert": "RSPO Certified",
        "latitude": 4.97846,
        "longitude": 100.4619,
        "operator": {
          "name": "SIME DARBY PLANTATION BHD",
          "rspo_membershipNumber": null
        }
      },
      {
        "millName": "OLDESA OLEO DE DENDE",
        "cert": "Not RSPO Certified",
        "latitude": -13.03328,
        "longitude": -39.00358,
        "operator": {
          "name": "OLDESA LEO DE DEND S.A.",
          "rspo_membershipNumber": null
        }
      },
      {
        "millName": "NGL FACTORY",
        "cert": "RSPO Certified",
        "latitude": 4.928059999999999,
        "longitude": -1.8963900000000002,
        "operator": {
          "name": "NORPALM GHANA LIMITED",
          "rspo_membershipNumber": "1-0162-14-000-00"
        }
      },
      {
        "millName": "CONDONG GARUT",
        "cert": "Not RSPO Certified",
        "latitude": -7.59417,
        "longitude": 107.66,
        "operator": {
          "name": "CONDONG GARUT",
          "rspo_membershipNumber": null
        }
      },
      {
        "millName": "NIRMALA AGRO LESTARI",
        "cert": "Not RSPO Certified",
        "latitude": -2.09193,
        "longitude": 111.48705,
        "operator": {
          "name": "NIRMALA AGRO LESTARI",
          "rspo_membershipNumber": null
        }
      },
      {
        "millName": "HAGITA",
        "cert": "RSPO Certified",
        "latitude": -10.31573,
        "longitude": 150.28623000000002,
        "operator": {
          "name": "KULA PALM OIL LTD - MILNE BAY ESTATES",
          "rspo_membershipNumber": null
        }
      },
      {
        "millName": "JATI",
        "cert": "Not RSPO Certified",
        "latitude": 0.10602,
        "longitude": 103.17041,
        "operator": {
          "name": "TH INDO PLANTATIONS",
          "rspo_membershipNumber": null
        }
      },
      {
        "millName": "KRIYA SWARNA PUBIAN",
        "cert": "Not RSPO Certified",
        "latitude": -5.0637,
        "longitude": 104.87663,
        "operator": {
          "name": "KRIYA SWARNA PUBIAN",
          "rspo_membershipNumber": null
        }
      },
      {
        "millName": "GOPDC",
        "cert": "RSPO Certified",
        "latitude": 6.25611,
        "longitude": -0.94389,
        "operator": {
          "name": "GOPDC",
          "rspo_membershipNumber": null
        }
      },
      {
        "millName": "AUSTINDO NUSANTARA JAYA AGRI BINANGA",
        "cert": "RSPO Certified",
        "latitude": 1.47948,
        "longitude": 99.95716999999999,
        "operator": {
          "name": "AUSTINDO NUSANTARA JAYA AGRI",
          "rspo_membershipNumber": null
        }
      },
      {
        "millName": "SUAYAP",
        "cert": "RSPO Certified",
        "latitude": -2.26525,
        "longitude": 111.72308000000001,
        "operator": {
          "name": "MITRA MENDAWAI SEJATI",
          "rspo_membershipNumber": null
        }
      },
      {
        "millName": "LENGA",
        "cert": "Not RSPO Certified",
        "latitude": 2.2263599999999997,
        "longitude": 102.56933000000001,
        "operator": {
          "name": "LENGA PALMOIL INDUSTRIES SDN BHD",
          "rspo_membershipNumber": null
        }
      },
      {
        "millName": "FAJAR SAUDARA LESTARI",
        "cert": "Not RSPO Certified",
        "latitude": -0.86806,
        "longitude": 109.62806,
        "operator": {
          "name": "FAJAR SAUDARA LESTARI",
          "rspo_membershipNumber": null
        }
      },
      {
        "millName": "SAPI",
        "cert": "RSPO Certified",
        "latitude": 5.7335199999999995,
        "longitude": 117.3874,
        "operator": {
          "name": "SAPI PLANTATION SDN BHD",
          "rspo_membershipNumber": null
        }
      },
      {
        "millName": "BANGUN JAYA ALAM PERMAI PKS 2",
        "cert": "Not RSPO Certified",
        "latitude": -2.0918900000000002,
        "longitude": 112.04057,
        "operator": {
          "name": "BANGUN JAYA ALAM PERMAI",
          "rspo_membershipNumber": null
        }
      },
      {
        "millName": "SEI INAI",
        "cert": "Not RSPO Certified",
        "latitude": -4.0633300000000006,
        "longitude": 104.13028,
        "operator": {
          "name": "MINANGA OGAN",
          "rspo_membershipNumber": null
        }
      },
      {
        "millName": "TUNGKA MILL",
        "cert": "Not RSPO Certified",
        "latitude": 10.42507,
        "longitude": 99.1306,
        "operator": {
          "name": "VICHITBHAN PALMOIL PUBLIC COMPANY LTD",
          "rspo_membershipNumber": null
        }
      },
      {
        "millName": "MAHAKAM SAWIT PLANTATION",
        "cert": "Not RSPO Certified",
        "latitude": -0.33866999999999997,
        "longitude": 116.88073999999999,
        "operator": {
          "name": "MAHAKAM SAWIT PLANTATION",
          "rspo_membershipNumber": null
        }
      },
      {
        "millName": "BARACOA",
        "cert": "Not RSPO Certified",
        "latitude": 15.751339999999999,
        "longitude": -87.84127,
        "operator": {
          "name": "INDUSTRIAS ACEITERAS DEL CARIBE DE HONDURAS (HONDUCARIBE)",
          "rspo_membershipNumber": null
        }
      },
      {
        "millName": "SINAR LANGKAT PERKASA",
        "cert": "Not RSPO Certified",
        "latitude": 3.6208099999999996,
        "longitude": 98.40153000000001,
        "operator": {
          "name": "SINAR LANGKAT PERKASA",
          "rspo_membershipNumber": null
        }
      },
      {
        "millName": "BEBUNGA",
        "cert": "RSPO Certified",
        "latitude": -2.3736099999999998,
        "longitude": 116.32972,
        "operator": {
          "name": "LANGGENG MUARA MAKMUR",
          "rspo_membershipNumber": null
        }
      },
      {
        "millName": "SIAM MILL",
        "cert": "RSPO Certified",
        "latitude": 8.38562,
        "longitude": 98.72913,
        "operator": {
          "name": "UNIVANICH PALM OIL",
          "rspo_membershipNumber": null
        }
      },
      {
        "millName": "PANGIAN",
        "cert": "Not RSPO Certified",
        "latitude": -1.32013,
        "longitude": 101.64856999999999,
        "operator": {
          "name": "INCASI RAYA",
          "rspo_membershipNumber": null
        }
      },
      {
        "millName": "SAWIT UNGGUL AGRO NIAGA",
        "cert": "Not RSPO Certified",
        "latitude": -0.35114,
        "longitude": 117.39362,
        "operator": {
          "name": "SAWIT UNGGUL AGRO NIAGA",
          "rspo_membershipNumber": null
        }
      },
      {
        "millName": "PIPIT MUTIARA INDAH",
        "cert": "Not RSPO Certified",
        "latitude": 3.32473,
        "longitude": 117.17365,
        "operator": {
          "name": "PIPIT MUTIARA INDAH",
          "rspo_membershipNumber": null
        }
      },
      {
        "millName": "NAGAMAS AGRO MULYA",
        "cert": "Not RSPO Certified",
        "latitude": 1.3011,
        "longitude": 100.3977,
        "operator": {
          "name": "NAGAMAS AGRO MULIA",
          "rspo_membershipNumber": null
        }
      },
      {
        "millName": "GAYANIS",
        "cert": "Not RSPO Certified",
        "latitude": 3.35808,
        "longitude": 113.67473999999999,
        "operator": {
          "name": "GAYANIS SDN BHD",
          "rspo_membershipNumber": null
        }
      },
      {
        "millName": "LAE BUTAR",
        "cert": "RSPO Certified",
        "latitude": 2.39111,
        "longitude": 97.95666999999999,
        "operator": {
          "name": "SOCFIN INDONESIA",
          "rspo_membershipNumber": null
        }
      },
      {
        "millName": "EXTRACTORA AGROACEITE",
        "cert": "RSPO Certified",
        "latitude": 14.55521,
        "longitude": -92.006,
        "operator": {
          "name": "AGROACEITE SA",
          "rspo_membershipNumber": null
        }
      },
      {
        "millName": "ST PALM OIL MILL",
        "cert": "Not RSPO Certified",
        "latitude": 3.8342099999999997,
        "longitude": 101.17452,
        "operator": {
          "name": "ST PALM OIL MILL SDN BHD",
          "rspo_membershipNumber": null
        }
      },
      {
        "millName": "TANJONG MALIM",
        "cert": "RSPO Certified",
        "latitude": 3.695,
        "longitude": 101.48567,
        "operator": {
          "name": "KUALA LUMPUR KEPONG BERHAD",
          "rspo_membershipNumber": "1-0014-04-000-00"
        }
      },
      {
        "millName": "NUTRIMEZCLAS Y ACEITES S.A.S",
        "cert": "Not RSPO Certified",
        "latitude": 7.25333,
        "longitude": -73.56636,
        "operator": {
          "name": "CI TOP S.A",
          "rspo_membershipNumber": null
        }
      },
      {
        "millName": "MARIANGO",
        "cert": "Not RSPO Certified",
        "latitude": -1.28094,
        "longitude": 116.63699,
        "operator": {
          "name": "KEBUN MANDIRI SEJAHTERA",
          "rspo_membershipNumber": null
        }
      },
      {
        "millName": "TUNAS PRIMA SEJAHTERA",
        "cert": "Not RSPO Certified",
        "latitude": 0.05609,
        "longitude": 116.37998999999999,
        "operator": {
          "name": "TUNAS PRIMA SEJAHTERA",
          "rspo_membershipNumber": null
        }
      },
      {
        "millName": "SENTOSA SEJAHTERA SEJATI",
        "cert": "Not RSPO Certified",
        "latitude": -2.66545,
        "longitude": 101.29975,
        "operator": {
          "name": "SENTOSA SEJAHTERA SEJATI",
          "rspo_membershipNumber": null
        }
      },
      {
        "millName": "DABUK REJO",
        "cert": "RSPO Certified",
        "latitude": -3.94863,
        "longitude": 104.95737,
        "operator": {
          "name": "BULUH CAWANG PLANTATIONS",
          "rspo_membershipNumber": null
        }
      },
      {
        "millName": "SARASWANTI SAWIT MAKMUR",
        "cert": "Not RSPO Certified",
        "latitude": -2.26694,
        "longitude": 116.015,
        "operator": {
          "name": "SARASWANTI SAWIT MAKMUR",
          "rspo_membershipNumber": null
        }
      },
      {
        "millName": "LUNGMANIS",
        "cert": "RSPO Certified",
        "latitude": 5.08395,
        "longitude": 118.58825,
        "operator": {
          "name": "KL-KEPONG (SABAH) SDN BERHAD",
          "rspo_membershipNumber": null
        }
      },
      {
        "millName": "MULTI GUNA LESTARI ABADI",
        "cert": "Not RSPO Certified",
        "latitude": -0.9596299999999999,
        "longitude": 102.74874,
        "operator": {
          "name": "MULTI GUNA LESTARI ABADI",
          "rspo_membershipNumber": null
        }
      },
      {
        "millName": "MELEWAR",
        "cert": "RSPO Certified",
        "latitude": 5.27222,
        "longitude": 118.05344,
        "operator": {
          "name": "MELEWAR PROPERTIES SDN BHD",
          "rspo_membershipNumber": null
        }
      },
      {
        "millName": "YUWANG",
        "cert": "Not RSPO Certified",
        "latitude": 4.7767599999999995,
        "longitude": 117.93445,
        "operator": {
          "name": "YUWANG PALM OIL MILL SDN BHD",
          "rspo_membershipNumber": null
        }
      },
      {
        "millName": "HARAPAN SAWIT SEJAHTERA",
        "cert": "Not RSPO Certified",
        "latitude": -1.75272,
        "longitude": 116.12088999999999,
        "operator": {
          "name": "HARAPAN SAWIT SEJAHTERA",
          "rspo_membershipNumber": null
        }
      },
      {
        "millName": "GRAHA CAKRA MULIA",
        "cert": "Not RSPO Certified",
        "latitude": -2.13444,
        "longitude": 111.1825,
        "operator": {
          "name": "GRAHA CAKRA MULIA",
          "rspo_membershipNumber": null
        }
      },
      {
        "millName": "KECHAU A",
        "cert": "Not RSPO Certified",
        "latitude": 4.29293,
        "longitude": 102.07661,
        "operator": {
          "name": "FGV PALM INDUSTRIES SDN BHD",
          "rspo_membershipNumber": null
        }
      },
      {
        "millName": "TELUPID",
        "cert": "Not RSPO Certified",
        "latitude": 5.467280000000001,
        "longitude": 116.98956000000001,
        "operator": {
          "name": "KIM LOONG SABAH MILLS SDN BHD",
          "rspo_membershipNumber": null
        }
      },
      {
        "millName": "PUNDU NABATINDO",
        "cert": "RSPO Certified",
        "latitude": -1.99317,
        "longitude": 113.06071000000001,
        "operator": {
          "name": "WINDU NABATINDO LESTARI",
          "rspo_membershipNumber": null
        }
      },
      {
        "millName": "JELALONG",
        "cert": "Not RSPO Certified",
        "latitude": 3.37903,
        "longitude": 113.99947,
        "operator": {
          "name": "SAMLING PLANTATION SDN BHD",
          "rspo_membershipNumber": null
        }
      },
      {
        "millName": "RH SELANGAU",
        "cert": "Not RSPO Certified",
        "latitude": 2.58482,
        "longitude": 112.33457,
        "operator": {
          "name": "RH SELANGAU PALM OIL MILL SDN BHD",
          "rspo_membershipNumber": null
        }
      },
      {
        "millName": "EXTRACTORA SANTAFE SAS",
        "cert": "Not RSPO Certified",
        "latitude": 1.4806700000000002,
        "longitude": -78.66199999999999,
        "operator": {
          "name": "C.I. TOP S.A.",
          "rspo_membershipNumber": "2-0842-18-000-00"
        }
      },
      {
        "millName": "JORONG",
        "cert": "RSPO Certified",
        "latitude": -3.8227,
        "longitude": 114.96345,
        "operator": {
          "name": "GAWI MAKMUR KALIMANTAN",
          "rspo_membershipNumber": null
        }
      },
      {
        "millName": "SINAR TENERA",
        "cert": "Not RSPO Certified",
        "latitude": 3.07012,
        "longitude": 99.2047,
        "operator": {
          "name": "SINAR TENERA",
          "rspo_membershipNumber": null
        }
      },
      {
        "millName": "PANJI ALAM",
        "cert": "Not RSPO Certified",
        "latitude": 4.37444,
        "longitude": 103.34917,
        "operator": {
          "name": "KILANG SAWIT PANJI ALAM SDN BHD",
          "rspo_membershipNumber": null
        }
      },
      {
        "millName": "INDUSTRIAS DEL SHANUSI",
        "cert": "Not RSPO Certified",
        "latitude": -6.1215,
        "longitude": -76.17145,
        "operator": {
          "name": "INDUSTRIAS DEL SHANUSI SA",
          "rspo_membershipNumber": null
        }
      },
      {
        "millName": "GRAHA INTI JAYA",
        "cert": "Not RSPO Certified",
        "latitude": -2.67393,
        "longitude": 114.3792,
        "operator": {
          "name": "GRAHA INTI JAYA",
          "rspo_membershipNumber": null
        }
      },
      {
        "millName": "GLOBALINDO AGUNG LESTARI",
        "cert": "Not RSPO Certified",
        "latitude": -2.58494,
        "longitude": 114.59442,
        "operator": {
          "name": "GLOBALINDO AGUNG LESTARI",
          "rspo_membershipNumber": null
        }
      },
      {
        "millName": "SARI BUAH SAWIT",
        "cert": "Not RSPO Certified",
        "latitude": -0.04964,
        "longitude": 99.88314,
        "operator": {
          "name": "SARI BUAH SAWIT",
          "rspo_membershipNumber": null
        }
      },
      {
        "millName": "ATAHUALPA",
        "cert": "Not RSPO Certified",
        "latitude": -0.02273,
        "longitude": -79.49803,
        "operator": {
          "name": "ATAHUALPA",
          "rspo_membershipNumber": null
        }
      },
      {
        "millName": "KILIRAN JAO",
        "cert": "Not RSPO Certified",
        "latitude": -0.86485,
        "longitude": 101.44563000000001,
        "operator": {
          "name": "BINA PRATAMA SAKOTO JAYA",
          "rspo_membershipNumber": null
        }
      },
      {
        "millName": "SOLID",
        "cert": "Not RSPO Certified",
        "latitude": 3.73694,
        "longitude": 113.59033000000001,
        "operator": {
          "name": "SOLID OIL PALM PLANTATION SDN BHD",
          "rspo_membershipNumber": null
        }
      },
      {
        "millName": "BUKIT SENORANG",
        "cert": "Not RSPO Certified",
        "latitude": 3.09746,
        "longitude": 102.42668,
        "operator": {
          "name": "SYARIKAT PENANAMAN BUKIT SENORANG SDN BHD",
          "rspo_membershipNumber": null
        }
      },
      {
        "millName": "SALO BANDANG",
        "cert": "Not RSPO Certified",
        "latitude": -0.41758,
        "longitude": 117.3645,
        "operator": {
          "name": "TRITUNGGAL SENTRA BUANA",
          "rspo_membershipNumber": null
        }
      },
      {
        "millName": "TUNAS AGRO SUBUR KENCANA",
        "cert": "Not RSPO Certified",
        "latitude": -1.8286,
        "longitude": 112.91257,
        "operator": {
          "name": "TUNAS AGRO SUBUR KENCANA",
          "rspo_membershipNumber": null
        }
      },
      {
        "millName": "COOPERATIVA SALAMA",
        "cert": "Not RSPO Certified",
        "latitude": 15.70584,
        "longitude": -85.9416,
        "operator": {
          "name": "COOPERATIVA DE PRODUCCION AGROPECUARIA SALAMA LIMITADA",
          "rspo_membershipNumber": null
        }
      },
      {
        "millName": "LABU (SOU 13)",
        "cert": "RSPO Certified",
        "latitude": 2.7488900000000003,
        "longitude": 101.8045,
        "operator": {
          "name": "SIME DARBY PLANTATION BHD",
          "rspo_membershipNumber": null
        }
      },
      {
        "millName": "LADANG RAKYAT",
        "cert": "Not RSPO Certified",
        "latitude": 4.14074,
        "longitude": 103.21899,
        "operator": {
          "name": "LADANG RAKYAT TERENGGANU SDN BHD",
          "rspo_membershipNumber": null
        }
      },